$GPGGA,115607,4959.9685,N,00904.6065,E,1,06,1.20,122.4,M,47.908,M,,*7F
$GPRMC,115607,A,4959.9685,N,00904.6065,E,0.3124,0.000,130507,,*26
$GPGSA,A,3,20,02,23,27,25,13,,,,,,,2.8,1.2,1.0*3B
$GPGGA,115608,4959.9685,N,00904.6056,E,1,06,1.20,123.7,M,47.908,M,,*72
$GPRMC,115608,A,4959.9685,N,00904.6056,E,0.0472,234.230,130507,,*28
$GPGSA,A,3,20,02,23,27,25,13,,,,,,,2.8,1.2,1.0*3B
$GPGGA,115609,4959.9685,N,00904.6045,E,1,06,1.20,126.4,M,47.908,M,,*77
$GPRMC,115609,A,4959.9685,N,00904.6045,E,0.0472,234.230,130507,,*2B
$GPGSA,A,3,20,02,23,27,25,13,,,,,,,2.8,1.2,1.0*3B
$GPGGA,115610,4959.9688,N,00904.6035,E,1,06,1.20,128.5,M,47.908,M,,*7A
$GPRMC,115610,A,4959.9688,N,00904.6035,E,0.0472,234.230,130507,,*29
$GPGSA,A,3,20,02,23,27,25,13,,,,,,,2.8,1.2,1.0*3B
$GPGGA,115611,4959.9687,N,00904.6033,E,1,06,1.20,131.3,M,47.908,M,,*7C
$GPRMC,115611,A,4959.9687,N,00904.6033,E,0.1562,0.000,130507,,*24
$GPGSA,A,3,20,02,23,27,25,13,,,,,,,2.8,1.2,1.0*3B
$GPGSV,3,1,09,20,33,103,32,02,22,312,32,23,72,063,29,27,16,180,37*75
$GPGSV,3,2,09,17,06,226,00,25,47,144,41,13,72,232,30,04,53,282,00*7A
$GPGSV,3,3,09,16,05,072,34*40
$GPGGA,115612,4959.9686,N,00904.6031,E,1,06,1.20,132.7,M,47.908,M,,*7B
$GPRMC,115612,A,4959.9686,N,00904.6031,E,0.1562,0.000,130507,,*24
$GPGSA,A,3,20,02,23,27,25,13,,,,,,,2.8,1.2,1.0*3B
$GPGGA,115613,4959.9690,N,00904.6022,E,1,06,1.20,134.8,M,47.908,M,,*76
$GPRMC,115613,A,4959.9690,N,00904.6022,E,0.1562,0.000,130507,,*20
$GPGSA,A,3,20,02,23,27,25,13,,,,,,,2.8,1.2,1.0*3B
$GPGGA,115614,4959.9690,N,00904.6012,E,1,06,1.20,136.1,M,47.908,M,,*79
$GPRMC,115614,A,4959.9690,N,00904.6012,E,0.1562,0.000,130507,,*24
$GPGSA,A,3,20,02,23,27,25,13,,,,,,,2.8,1.2,1.0*3B
$GPGGA,115615,4959.9689,N,00904.6011,E,1,05,1.60,137.5,M,47.908,M,,*71
$GPRMC,115615,A,4959.9689,N,00904.6011,E,0.1562,0.000,130507,,*2E
$GPGSA,A,3,20,02,23,27,25,,,,,,,,2.8,1.6,1.0*3D
$GPGGA,115616,4959.9685,N,00904.6010,E,1,06,1.20,138.1,M,47.908,M,,*73
$GPRMC,115616,A,4959.9685,N,00904.6010,E,0.1562,0.000,130507,,*20
$GPGSA,A,3,20,02,23,27,25,13,,,,,,,2.8,1.2,1.0*3B
$GPGSV,3,1,09,20,33,103,31,02,22,312,31,23,72,063,30,27,16,180,39*73
$GPGSV,3,2,09,17,06,226,00,25,47,144,43,13,72,232,30,04,53,282,00*78
$GPGSV,3,3,09,16,05,072,31*45
$GPGGA,115617,4959.9690,N,00904.6003,E,1,06,1.20,137.4,M,47.908,M,,*7E
$GPRMC,115617,A,4959.9690,N,00904.6003,E,0.0000,0.000,130507,,*27
$GPGSA,A,3,20,02,23,27,25,13,,,,,,,2.8,1.2,1.0*3B
$GPGGA,115618,4959.9686,N,00904.6003,E,1,06,1.20,136.6,M,47.908,M,,*75
$GPRMC,115618,A,4959.9686,N,00904.6003,E,0.0000,0.000,130507,,*2F
$GPGSA,A,3,20,02,23,27,25,13,,,,,,,2.8,1.2,1.0*3B
$GPGGA,115619,4959.9686,N,00904.6003,E,1,06,1.20,136.6,M,47.908,M,,*74
$GPRMC,115619,A,4959.9686,N,00904.6003,E,0.5331,256.431,130507,,*2D
$GPGSA,A,3,20,02,23,27,25,13,,,,,,,2.8,1.2,1.0*3B
$GPGGA,115620,4959.9686,N,00904.6003,E,1,06,1.20,136.6,M,47.908,M,,*7E
$GPRMC,115620,A,4959.9686,N,00904.6003,E,0.1562,0.000,130507,,*24
$GPGSA,A,3,20,02,23,27,25,13,,,,,,,2.8,1.2,1.0*3B
$GPGGA,115621,4959.9690,N,00904.6004,E,1,07,1.20,136.0,M,47.908,M,,*78
$GPRMC,115621,A,4959.9690,N,00904.6004,E,0.0472,234.230,130507,,*20
$GPGSA,A,3,20,02,23,27,25,13,04,,,,,,2.8,1.2,1.0*3F
$GPGSV,3,1,09,20,33,103,33,02,22,312,29,23,72,063,28,27,16,180,38*70
$GPGSV,3,2,09,17,06,226,00,25,47,144,40,13,72,232,31,04,53,282,17*7C
$GPGSV,3,3,09,16,05,072,31*45
$GPGGA,115622,4959.9691,N,00904.5996,E,1,06,1.20,135.9,M,47.908,M,,*70
$GPRMC,115622,A,4959.9691,N,00904.5996,E,0.0472,234.230,130507,,*23
$GPGSA,A,3,20,02,23,27,25,13,,,,,,,2.8,1.2,1.0*3B
$GPGGA,115623,4959.9687,N,00904.5994,E,1,06,1.20,136.5,M,47.908,M,,*7B
$GPRMC,115623,A,4959.9687,N,00904.5994,E,0.0472,234.230,130507,,*27
$GPGSA,A,3,20,02,23,27,25,13,,,,,,,2.8,1.2,1.0*3B
$GPGGA,115624,4959.9683,N,00904.5993,E,1,06,1.20,137.1,M,47.908,M,,*7A
$GPRMC,115624,A,4959.9683,N,00904.5993,E,0.4853,123.821,130507,,*27
$GPGSA,A,3,20,02,23,27,25,13,,,,,,,2.8,1.2,1.0*3B
$GPGGA,115625,4959.9686,N,00904.5993,E,1,05,1.40,137.9,M,47.908,M,,*73
$GPRMC,115625,A,4959.9686,N,00904.5993,E,0.2909,145.859,130507,,*24
$GPGSA,A,3,20,02,27,25,13,,,,,,,,2.8,1.4,1.0*3C
$GPGGA,115626,4959.9686,N,00904.5993,E,1,05,1.40,137.9,M,47.908,M,,*70
$GPRMC,115626,A,4959.9686,N,00904.5993,E,1.5122,77.783,130507,,*18
$GPGSA,A,3,20,02,27,25,13,,,,,,,,2.8,1.4,1.0*3C
$GPGSV,3,1,09,20,33,103,28,02,22,312,28,23,72,063,00,27,16,180,36*7F
$GPGSV,3,2,09,17,06,226,00,25,47,144,38,13,72,232,31,04,53,282,00*75
$GPGSV,3,3,09,16,05,072,33*47
$GPGGA,115627,4959.9686,N,00904.6001,E,1,05,1.40,138.0,M,47.908,M,,*76
$GPRMC,115627,A,4959.9686,N,00904.6001,E,0.4499,101.064,130507,,*23
$GPGSA,A,3,20,02,27,25,13,,,,,,,,3.1,1.4,1.1*35
$GPGGA,115628,4959.9685,N,00904.6000,E,1,04,2.80,139.4,M,47.908,M,,*70
$GPRMC,115628,A,4959.9685,N,00904.6000,E,0.4426,163.602,130507,,*28
$GPGSA,A,3,02,27,25,13,,,,,,,,,3.1,2.8,1.1*38
$GPGGA,115629,4959.9685,N,00904.5999,E,1,04,2.80,140.8,M,47.908,M,,*79
$GPRMC,115629,A,4959.9685,N,00904.5999,E,1.0280,283.847,130507,,*2E
$GPGSA,A,3,02,27,25,13,,,,,,,,,3.1,2.8,1.1*38
$GPGGA,115630,4959.9685,N,00904.5999,E,1,04,2.80,140.8,M,47.908,M,,*71
$GPRMC,115630,A,4959.9685,N,00904.5999,E,0.6066,307.716,130507,,*2D
$GPGSA,A,3,02,27,25,13,,,,,,,,,3.1,2.8,1.1*38
$GPRMC,115631,V,4959.9684,N,00904.6000,E,0.0000,0.000,130507,,*32
$GPGSA,A,1,,,,,,,,,,,,,,,,*32
$GPGSV,3,1,09,20,33,103,39,02,22,312,27,23,72,063,39,27,16,180,41*7A
$GPGSV,3,2,09,17,06,226,00,25,47,144,40,13,72,232,31,04,53,282,08*72
$GPGSV,3,3,09,16,05,072,35*41
$GPGGA,115632,4959.9675,N,00904.6123,E,1,04,3.40,112.3,M,47.908,M,,*77
$GPRMC,115632,A,4959.9675,N,00904.6123,E,0.1562,0.000,130507,,*28
$GPGSA,A,3,20,23,27,25,,,,,,,,,3.3,3.4,1.2*37
$GPGGA,115633,4959.9630,N,00904.6159,E,1,04,3.40,119.3,M,47.908,M,,*71
$GPRMC,115633,A,4959.9630,N,00904.6159,E,0.2095,105.782,130507,,*22
$GPGSA,A,3,20,23,27,25,,,,,,,,,3.3,3.4,1.2*37
$GPGGA,115634,4959.9680,N,00904.6197,E,1,06,1.80,106.3,M,47.908,M,,*7D
$GPRMC,115634,A,4959.9680,N,00904.6197,E,0.4208,331.373,130507,,*23
$GPGSA,A,3,20,23,27,25,13,04,,,,,,,3.3,1.8,1.2*3F
$GPGGA,115635,4959.9695,N,00904.6257,E,1,05,3.20,98.7,M,47.908,M,,*4E
$GPRMC,115635,A,4959.9695,N,00904.6257,E,0.1878,11.781,130507,,*19
$GPGSA,A,3,20,23,27,25,13,,,,,,,,3.3,3.2,1.2*33
$GPGGA,115636,4959.9706,N,00904.6317,E,1,05,3.20,90.4,M,47.908,M,,*48
$GPRMC,115636,A,4959.9706,N,00904.6317,E,0.8060,81.199,130507,,*1A
$GPGSA,A,3,20,23,27,25,13,,,,,,,,3.3,3.2,1.2*33
$GPGSV,3,1,09,20,33,103,26,02,22,312,00,23,71,063,23,27,16,180,00*7C
$GPGSV,3,2,09,17,06,226,00,25,48,144,09,13,72,232,25,04,54,282,00*7A
$GPGSV,3,3,09,16,05,072,00*47
$GPGGA,115637,4959.9708,N,00904.6353,E,1,04,4.60,88.8,M,47.908,M,,*40
$GPRMC,115637,A,4959.9708,N,00904.6353,E,1.6431,75.809,130507,,*11
$GPGSA,A,3,20,23,25,13,,,,,,,,,3.3,4.6,1.2*35
$GPGGA,115638,4959.9720,N,00904.6367,E,1,04,3.60,85.6,M,47.908,M,,*46
$GPRMC,115638,A,4959.9720,N,00904.6367,E,1.2776,335.582,130507,,*2E
$GPGSA,A,3,20,23,13,04,,,,,,,,,3.3,3.6,1.2*31
$GPGGA,115639,4959.9737,N,00904.6391,E,1,04,3.60,80.5,M,47.908,M,,*4E
$GPRMC,115639,A,4959.9737,N,00904.6391,E,2.7890,30.602,130507,,*1C
$GPGSA,A,3,20,23,13,04,,,,,,,,,3.3,3.6,1.2*31
$GPGGA,115640,4959.9788,N,00904.6401,E,1,04,3.60,69.9,M,47.908,M,,*41
$GPRMC,115640,A,4959.9788,N,00904.6401,E,7.8502,5.459,130507,,*2E
$GPGSA,A,3,20,23,13,04,,,,,,,,,3.3,3.6,1.2*31
$GPGGA,115641,4959.9851,N,00904.6448,E,1,04,3.60,58.7,M,47.908,M,,*4A
$GPRMC,115641,A,4959.9851,N,00904.6448,E,12.5196,29.267,130507,,*2C
$GPGSA,A,3,20,23,13,04,,,,,,,,,3.3,3.6,1.2*31
$GPGSV,3,1,09,20,33,103,25,02,22,312,00,23,71,063,25,27,16,180,16*7E
$GPGSV,3,2,09,17,06,226,00,25,48,144,00,13,72,232,25,04,54,282,25*74
$GPGSV,3,3,09,16,05,072,25*40
$GPGGA,115642,4959.9997,N,00904.6535,E,1,04,3.60,39.9,M,47.908,M,,*40
$GPRMC,115642,A,4959.9997,N,00904.6535,E,36.9362,25.359,130507,,*2C
$GPGSA,A,3,20,23,13,04,,,,,,,,,3.3,3.6,1.2*31
$GPGGA,115643,5000.0192,N,00904.6680,E,1,04,3.60,22.7,M,47.908,M,,*48
$GPRMC,115643,A,5000.0192,N,00904.6680,E,58.6860,25.193,130507,,*2A
$GPGSA,A,3,20,23,13,04,,,,,,,,,3.3,3.6,1.2*31
$GPGGA,115644,5000.0636,N,00904.6813,E,1,04,3.60,-4.6,M,47.907,M,,*55
$GPRMC,115644,A,5000.0636,N,00904.6813,E,148.7369,5.403,130507,,*2D
$GPGSA,A,3,20,23,13,04,,,,,,,,,3.3,3.6,1.2*31
$GPRMC,115645,V,5000.0635,N,00904.6807,E,0.0000,0.000,130507,,*39
$GPGSA,A,1,,,,,,,,,,,,,,,,*32
$GPGGA,115646,4959.9735,N,00904.5738,E,1,03,16.60,139.5,M,47.908,M,,*40
$GPRMC,115646,A,4959.9735,N,00904.5738,E,0.0000,0.000,130507,,*21
$GPGSA,A,2,23,27,25,,,,,,,,,,3.3,16.6,1.2*02
$GPGSV,3,1,09,20,33,103,34,02,22,312,35,23,71,063,41,27,16,180,38*76
$GPGSV,3,2,09,17,06,226,00,25,48,144,43,13,73,232,30,04,54,282,36*74
$GPGSV,3,3,09,16,05,072,00*47
$GPGGA,115647,4959.9635,N,00904.5997,E,1,07,1.20,131.5,M,47.908,M,,*75
$GPRMC,115647,A,4959.9635,N,00904.5997,E,0.1562,0.000,130507,,*2A
$GPGSA,A,3,20,02,23,27,25,13,04,,,,,,2.0,1.2,0.9*3F
$GPGGA,115648,4959.9631,N,00904.6066,E,1,07,1.20,129.5,M,47.908,M,,*73
$GPRMC,115648,A,4959.9631,N,00904.6066,E,0.0000,0.000,130507,,*25
$GPGSA,A,3,20,02,23,27,25,13,04,,,,,,2.0,1.2,0.9*3F
$GPGGA,115649,4959.9644,N,00904.6081,E,1,07,1.20,124.9,M,47.908,M,,*78
$GPRMC,115649,A,4959.9644,N,00904.6081,E,0.2095,105.782,130507,,*28
$GPGSA,A,3,20,02,23,27,25,13,04,,,,,,2.0,1.2,0.9*3F
$GPGGA,115650,4959.9651,N,00904.6091,E,1,07,1.20,125.1,M,47.908,M,,*7C
$GPRMC,115650,A,4959.9651,N,00904.6091,E,0.3589,261.431,130507,,*26
$GPGSA,A,3,20,02,23,27,25,13,04,,,,,,2.0,1.2,0.9*3F
$GPGGA,115651,4959.9655,N,00904.6092,E,1,07,1.20,124.5,M,47.908,M,,*7F
$GPRMC,115651,A,4959.9655,N,00904.6092,E,0.9115,34.649,130507,,*14
$GPGSA,A,3,20,02,23,27,25,13,04,,,,,,2.0,1.2,0.9*3F
$GPGSV,3,1,09,20,33,103,44,02,22,312,35,23,71,063,44,27,16,180,38*74
$GPGSV,3,2,09,17,06,226,00,25,48,144,47,13,73,232,42,04,54,282,41*75
$GPGSV,3,3,09,16,05,072,37*43
$GPGGA,115652,4959.9659,N,00904.6084,E,1,07,1.20,125.1,M,47.908,M,,*72
$GPRMC,115652,A,4959.9659,N,00904.6084,E,0.8449,296.188,130507,,*21
$GPGSA,A,3,20,02,23,27,25,13,04,,,,,,2.0,1.2,0.9*3F
$GPGGA,115653,4959.9663,N,00904.6085,E,1,07,1.20,124.5,M,47.908,M,,*7E
$GPRMC,115653,A,4959.9663,N,00904.6085,E,1.0868,233.457,130507,,*26
$GPGSA,A,3,20,02,23,27,25,13,04,,,,,,2.0,1.2,0.9*3F
$GPGGA,115654,4959.9664,N,00904.6077,E,1,07,1.20,124.4,M,47.908,M,,*72
$GPRMC,115654,A,4959.9664,N,00904.6077,E,0.3652,240.100,130507,,*2D
$GPGSA,A,3,20,02,23,27,25,13,04,,,,,,2.0,1.2,0.9*3F
$GPGGA,115655,4959.9668,N,00904.6078,E,1,07,1.20,123.8,M,47.908,M,,*7B
$GPRMC,115655,A,4959.9668,N,00904.6078,E,1.9729,150.561,130507,,*28
$GPGSA,A,3,20,02,23,27,25,13,04,,,,,,2.0,1.2,0.9*3F
$GPGGA,115656,4959.9665,N,00904.6078,E,1,07,1.20,123.0,M,47.908,M,,*7D
$GPRMC,115656,A,4959.9665,N,00904.6078,E,2.0848,73.238,130507,,*1F
$GPGSA,A,3,20,02,23,27,25,13,04,,,,,,2.0,1.2,0.9*3F
$GPGSV,3,1,09,20,33,103,42,02,22,312,39,23,71,063,46,27,16,180,37*73
$GPGSV,3,2,09,17,06,226,00,25,48,144,44,13,73,232,43,04,54,282,44*72
$GPGSV,3,3,09,16,05,072,00*47
$GPGGA,115657,4959.9672,N,00904.6088,E,1,07,1.20,123.2,M,47.908,M,,*77
$GPRMC,115657,A,4959.9672,N,00904.6088,E,2.5348,77.641,130507,,*17
$GPGSA,A,3,20,02,23,27,25,13,04,,,,,,2.0,1.2,0.9*3F
$GPGGA,115658,4959.9674,N,00904.6105,E,1,07,1.20,122.8,M,47.908,M,,*71
$GPRMC,115658,A,4959.9674,N,00904.6105,E,5.6367,88.085,130507,,*1D
$GPGSA,A,3,20,02,23,27,25,13,04,,,,,,2.0,1.2,0.9*3F
$GPGGA,115659,4959.9681,N,00904.6133,E,1,07,1.20,121.8,M,47.908,M,,*7C
$GPRMC,115659,A,4959.9681,N,00904.6133,E,8.4731,73.833,130507,,*1A
$GPGSA,A,3,20,02,23,27,25,13,04,,,,,,2.0,1.2,0.9*3F
$GPGGA,115700,4959.9690,N,00904.6169,E,1,07,1.20,121.7,M,47.908,M,,*71
$GPRMC,115700,A,4959.9690,N,00904.6169,E,10.0871,70.204,130507,,*23
$GPGSA,A,3,20,02,23,27,25,13,04,,,,,,2.0,1.2,0.9*3F
$GPGGA,115701,4959.9699,N,00904.6214,E,1,07,1.20,120.3,M,47.908,M,,*75
$GPRMC,115701,A,4959.9699,N,00904.6214,E,9.6579,68.912,130507,,*1C
$GPGSA,A,3,20,02,23,27,25,13,04,,,,,,2.0,1.2,0.9*3F
$GPGSV,3,1,09,20,33,103,42,02,22,312,35,23,71,063,46,27,16,180,37*7F
$GPGSV,3,2,09,17,06,226,42,25,48,144,43,13,73,232,43,04,54,282,43*74
$GPGSV,3,3,09,16,05,072,29*4C
$GPGGA,115702,4959.9712,N,00904.6251,E,1,07,1.20,119.6,M,47.908,M,,*7A
$GPRMC,115702,A,4959.9712,N,00904.6251,E,9.0245,66.745,130507,,*10
$GPGSA,A,3,20,02,23,27,25,13,04,,,,,,2.0,1.2,0.9*3F
$GPGGA,115703,4959.9721,N,00904.6287,E,1,07,1.20,119.5,M,47.908,M,,*73
$GPRMC,115703,A,4959.9721,N,00904.6287,E,9.4453,68.222,130507,,*15
$GPGSA,A,3,20,02,23,27,25,13,04,,,,,,2.0,1.2,0.9*3F
$GPGGA,115704,4959.9734,N,00904.6324,E,1,07,1.20,118.8,M,47.908,M,,*74
$GPRMC,115704,A,4959.9734,N,00904.6324,E,9.6579,68.912,130507,,*1D
$GPGSA,A,3,20,02,23,27,25,13,04,,,,,,2.0,1.2,0.9*3F
$GPGGA,115705,4959.9742,N,00904.6368,E,1,07,1.20,118.8,M,47.908,M,,*7C
$GPRMC,115705,A,4959.9742,N,00904.6368,E,9.7874,64.690,130507,,*1D
$GPGSA,A,3,20,02,23,27,25,13,04,,,,,,2.0,1.2,0.9*3F
$GPGGA,115706,4959.9759,N,00904.6405,E,1,07,1.20,118.8,M,47.908,M,,*79
$GPRMC,115706,A,4959.9759,N,00904.6405,E,9.5839,63.918,130507,,*1B
$GPGSA,A,3,20,02,23,27,25,13,04,,,,,,2.0,1.2,0.9*3F
$GPGSV,3,1,09,20,33,103,41,02,22,312,32,23,71,063,46,27,16,180,22*7F
$GPGSV,3,2,09,17,06,226,34,25,48,144,43,13,73,232,45,04,54,282,43*73
$GPGSV,3,3,09,16,05,072,21*44
$GPGGA,115707,4959.9771,N,00904.6440,E,1,07,1.20,119.5,M,47.908,M,,*7F
$GPRMC,115707,A,4959.9771,N,00904.6440,E,9.3822,63.113,130507,,*1E
$GPGSA,A,3,20,02,23,27,25,13,04,,,,,,2.0,1.2,0.9*3F
$GPGGA,115708,4959.9780,N,00904.6484,E,1,07,1.20,119.5,M,47.908,M,,*76
$GPRMC,115708,A,4959.9780,N,00904.6484,E,8.9848,61.395,130507,,*1E
$GPGSA,A,3,20,02,23,27,25,13,04,,,,,,2.0,1.2,0.9*3F
$GPGGA,115709,4959.9797,N,00904.6513,E,1,07,1.20,119.4,M,47.908,M,,*7F
$GPRMC,115709,A,4959.9797,N,00904.6513,E,8.5930,62.325,130507,,*1C
$GPGSA,A,3,20,02,23,27,25,13,04,,,,,,2.0,1.2,0.9*3F
$GPGGA,115710,4959.9806,N,00904.6549,E,1,07,1.20,119.3,M,47.908,M,,*78
$GPRMC,115710,A,4959.9806,N,00904.6549,E,8.4711,60.459,130507,,*1E
$GPGSA,A,3,20,02,23,27,25,13,04,,,,,,2.0,1.2,0.9*3F
$GPGGA,115711,4959.9819,N,00904.6576,E,1,07,1.20,119.9,M,47.908,M,,*71
$GPRMC,115711,A,4959.9819,N,00904.6576,E,8.1529,60.440,130507,,*19
$GPGSA,A,3,20,02,23,27,25,13,04,,,,,,2.0,1.2,0.9*3F
$GPGSV,3,1,09,20,33,103,37,02,22,312,40,23,71,063,45,27,16,180,37*7C
$GPGSV,3,2,09,17,06,226,30,25,48,144,44,13,73,232,43,04,54,282,42*77
$GPGSV,3,3,09,16,05,072,00*47
$GPGGA,115712,4959.9829,N,00904.6604,E,1,07,1.20,119.7,M,47.908,M,,*79
$GPRMC,115712,A,4959.9829,N,00904.6604,E,7.5634,60.356,130507,,*1B
$GPGSA,A,3,20,02,23,27,25,13,04,,,,,,2.0,1.2,0.9*3F
$GPGGA,115713,4959.9838,N,00904.6631,E,1,07,1.20,119.5,M,47.908,M,,*7C
$GPRMC,115713,A,4959.9838,N,00904.6631,E,7.5634,60.356,130507,,*1C
$GPGSA,A,3,20,02,23,27,25,13,04,,,,,,2.0,1.2,0.9*3F
$GPGGA,115714,4959.9851,N,00904.6658,E,1,06,2.00,120.1,M,47.908,M,,*75
$GPRMC,115714,A,4959.9851,N,00904.6658,E,6.8509,61.434,130507,,*18
$GPGSA,A,3,20,02,23,25,13,04,,,,,,,2.0,2.0,0.9*3B
$GPGGA,115715,4959.9857,N,00904.6685,E,1,07,1.20,120.5,M,47.908,M,,*76
$GPRMC,115715,A,4959.9857,N,00904.6685,E,6.6557,60.225,130507,,*1D
$GPGSA,A,3,20,02,23,27,25,13,04,,,,,,2.0,1.2,0.9*3F
$GPGGA,115716,4959.9867,N,00904.6712,E,1,07,1.20,120.3,M,47.908,M,,*7F
$GPRMC,115716,A,4959.9867,N,00904.6712,E,6.6557,60.225,130507,,*12
$GPGSA,A,3,20,02,23,27,25,13,04,,,,,,2.0,1.2,0.9*3F
$GPGSV,3,1,09,20,33,103,41,02,23,312,40,23,71,063,44,27,17,180,00*78
$GPGSV,3,2,09,17,05,226,31,25,48,142,41,13,73,232,44,04,54,282,42*71
$GPGSV,3,3,09,16,05,072,37*43
$GPGGA,115717,4959.9876,N,00904.6730,E,1,06,2.00,121.4,M,47.908,M,,*78
$GPRMC,115717,A,4959.9876,N,00904.6730,E,6.3427,63.990,130507,,*16
$GPGSA,A,3,20,02,23,25,13,04,,,,,,,2.9,2.0,1.0*3A
$GPGGA,115718,4959.9882,N,00904.6756,E,1,06,2.00,121.8,M,47.908,M,,*70
$GPRMC,115718,A,4959.9882,N,00904.6756,E,5.8700,62.791,130507,,*12
$GPGSA,A,3,20,02,23,25,13,04,,,,,,,2.9,2.0,1.0*3A
$GPGGA,115719,4959.9892,N,00904.6775,E,1,07,1.20,121.5,M,47.908,M,,*7C
$GPRMC,115719,A,4959.9892,N,00904.6775,E,5.6716,61.419,130507,,*1A
$GPGSA,A,3,20,02,23,27,25,13,04,,,,,,2.9,1.2,1.0*3E
$GPGGA,115720,4959.9895,N,00904.6793,E,1,07,1.20,121.1,M,47.908,M,,*7D
$GPRMC,115720,A,4959.9895,N,00904.6793,E,5.4825,64.349,130507,,*15
$GPGSA,A,3,20,02,23,27,25,13,04,,,,,,2.9,1.2,1.0*3E
$GPGGA,115721,4959.9905,N,00904.6812,E,1,07,1.20,120.8,M,47.908,M,,*7A
$GPRMC,115721,A,4959.9905,N,00904.6812,E,5.8747,58.685,130507,,*17
$GPGSA,A,3,20,02,23,27,25,13,04,,,,,,2.9,1.2,1.0*3E
$GPGSV,3,1,09,20,33,103,42,02,23,312,41,23,71,063,46,27,17,180,36*7D
$GPGSV,3,2,09,17,05,226,00,25,48,142,43,13,73,232,44,04,54,282,40*73
$GPGSV,3,3,09,16,05,072,36*42
$GPGGA,115722,4959.9912,N,00904.6830,E,1,07,1.20,121.1,M,47.908,M,,*77
$GPRMC,115722,A,4959.9912,N,00904.6830,E,6.3844,60.143,130507,,*10
$GPGSA,A,3,20,02,23,27,25,13,04,,,,,,2.0,1.2,0.9*3F
$GPGGA,115723,4959.9921,N,00904.6857,E,1,07,1.20,120.9,M,47.908,M,,*7E
$GPRMC,115723,A,4959.9921,N,00904.6857,E,5.9506,70.919,130507,,*14
$GPGSA,A,3,20,02,23,27,25,13,04,,,,,,2.0,1.2,0.9*3F
$GPGGA,115724,4959.9923,N,00904.6883,E,1,07,1.20,120.6,M,47.908,M,,*7D
$GPRMC,115724,A,4959.9923,N,00904.6883,E,5.6894,77.151,130507,,*12
$GPGSA,A,3,20,02,23,27,25,13,04,,,,,,2.0,1.2,0.9*3F
$GPGGA,115725,4959.9930,N,00904.6903,E,1,07,1.20,119.5,M,47.908,M,,*7E
$GPRMC,115725,A,4959.9930,N,00904.6903,E,5.1241,78.929,130507,,*15
$GPGSA,A,3,20,02,23,27,25,13,04,,,,,,2.0,1.2,0.9*3F
$GPGGA,115726,4959.9928,N,00904.6927,E,1,07,1.20,119.8,M,47.908,M,,*7F
$GPRMC,115726,A,4959.9928,N,00904.6927,E,4.8224,80.095,130507,,*1B
$GPGSA,A,3,20,02,23,27,25,13,04,,,,,,2.0,1.2,0.9*3F
$GPGSV,3,1,09,20,33,103,41,02,23,312,36,23,71,063,45,27,17,180,35*7E
$GPGSV,3,2,09,17,05,226,36,25,48,142,45,13,73,232,43,04,54,282,45*72
$GPGSV,3,3,09,16,05,072,37*43
$GPGGA,115727,4959.9931,N,00904.6945,E,1,07,1.20,119.4,M,47.908,M,,*7E
$GPRMC,115727,A,4959.9931,N,00904.6945,E,4.5916,79.218,130507,,*10
$GPGSA,A,3,20,02,23,27,25,13,04,,,,,,2.0,1.2,0.9*3F
$GPGGA,115728,4959.9937,N,00904.6963,E,1,07,1.20,119.7,M,47.908,M,,*70
$GPRMC,115728,A,4959.9937,N,00904.6963,E,4.3965,76.257,130507,,*1B
$GPGSA,A,3,20,02,23,27,25,13,04,,,,,,2.0,1.2,0.9*3F
$GPGGA,115729,4959.9936,N,00904.6980,E,1,07,1.20,119.9,M,47.908,M,,*73
$GPRMC,115729,A,4959.9936,N,00904.6980,E,4.2589,72.825,130507,,*12
$GPGSA,A,3,20,02,23,27,25,13,04,,,,,,2.0,1.2,0.9*3F
$GPGGA,115730,4959.9942,N,00904.6998,E,1,07,1.20,120.3,M,47.908,M,,*71
$GPRMC,115730,A,4959.9942,N,00904.6998,E,4.2589,72.825,130507,,*10
$GPGSA,A,3,20,02,23,27,25,13,04,,,,,,2.0,1.2,0.9*3F
$GPGGA,115731,4959.9944,N,00904.7014,E,1,07,1.20,121.2,M,47.908,M,,*7A
$GPRMC,115731,A,4959.9944,N,00904.7014,E,4.2589,72.825,130507,,*1B
$GPGSA,A,3,20,02,23,27,25,13,04,,,,,,2.0,1.2,0.9*3F
$GPGSV,3,1,09,20,33,103,42,02,23,312,37,23,71,063,45,27,17,180,39*70
$GPGSV,3,2,09,17,05,226,39,25,48,142,44,13,73,232,44,04,54,282,45*7B
$GPGSV,3,3,09,16,05,072,38*4C
$GPGGA,115732,4959.9947,N,00904.7032,E,1,07,1.20,120.8,M,47.908,M,,*75
$GPRMC,115732,A,4959.9947,N,00904.7032,E,4.1338,77.174,130507,,*18
$GPGSA,A,3,20,02,23,27,25,13,04,,,,,,2.0,1.2,0.9*3F
$GPGGA,115733,4959.9946,N,00904.7048,E,1,07,1.20,121.0,M,47.908,M,,*71
$GPRMC,115733,A,4959.9946,N,00904.7048,E,4.3620,78.250,130507,,*11
$GPGSA,A,3,20,02,23,27,25,13,04,,,,,,2.0,1.2,0.9*3F
$GPGGA,115734,4959.9952,N,00904.7066,E,1,07,1.20,121.3,M,47.908,M,,*7C
$GPRMC,115734,A,4959.9952,N,00904.7066,E,4.2589,72.825,130507,,*1C
$GPGSA,A,3,20,02,23,27,25,13,04,,,,,,2.0,1.2,0.9*3F
$GPGGA,115735,4959.9955,N,00904.7084,E,1,07,1.20,120.9,M,47.908,M,,*7D
$GPRMC,115735,A,4959.9955,N,00904.7084,E,4.4806,74.090,130507,,*1A
$GPGSA,A,3,20,02,23,27,25,13,04,,,,,,2.0,1.2,0.9*3F
$GPGGA,115736,4959.9958,N,00904.7102,E,1,07,1.20,120.5,M,47.908,M,,*70
$GPRMC,115736,A,4959.9958,N,00904.7102,E,4.4806,74.090,130507,,*1B
$GPGSA,A,3,20,02,23,27,25,13,04,,,,,,2.0,1.2,0.9*3F
$GPGSV,3,1,09,20,33,103,42,02,23,312,38,23,71,063,46,27,17,180,38*7D
$GPGSV,3,2,09,17,05,226,40,25,48,142,44,13,73,232,43,04,54,282,45*72
$GPGSV,3,3,09,16,05,072,38*4C
$GPGGA,115737,4959.9959,N,00904.7127,E,1,07,1.20,121.6,M,47.908,M,,*75
$GPRMC,115737,A,4959.9959,N,00904.7127,E,4.4806,74.090,130507,,*1C
$GPGSA,A,3,20,02,23,27,25,13,04,,,,,,2.0,1.2,0.9*3F
$GPGGA,115738,4959.9962,N,00904.7145,E,1,07,1.20,121.1,M,47.908,M,,*71
$GPRMC,115738,A,4959.9962,N,00904.7145,E,4.4806,74.090,130507,,*1F
$GPGSA,A,3,20,02,23,27,25,13,04,,,,,,2.0,1.2,0.9*3F
$GPGGA,115739,4959.9968,N,00904.7162,E,1,07,1.20,121.5,M,47.908,M,,*7B
$GPRMC,115739,A,4959.9968,N,00904.7162,E,4.7042,75.235,130507,,*16
$GPGSA,A,3,20,02,23,27,25,13,04,,,,,,2.0,1.2,0.9*3F
$GPGGA,115740,4959.9967,N,00904.7179,E,1,07,1.20,121.7,M,47.908,M,,*72
$GPRMC,115740,A,4959.9967,N,00904.7179,E,4.4806,74.090,130507,,*1A
$GPGSA,A,3,20,02,23,27,25,13,04,,,,,,2.0,1.2,0.9*3F
$GPGGA,115741,4959.9973,N,00904.7197,E,1,07,1.20,122.0,M,47.908,M,,*72
$GPRMC,115741,A,4959.9973,N,00904.7197,E,4.2589,72.825,130507,,*12
$GPGSA,A,3,20,02,23,27,25,13,04,,,,,,2.0,1.2,0.9*3F
$GPGSV,3,1,09,20,33,103,42,02,23,312,40,23,71,063,46,27,17,180,37*7D
$GPGSV,3,2,09,17,05,226,38,25,48,142,45,13,73,232,44,04,54,282,45*7B
$GPGSV,3,3,09,16,05,072,37*43
$GPGGA,115742,4959.9976,N,00904.7215,E,1,07,1.20,121.6,M,47.908,M,,*78
$GPRMC,115742,A,4959.9976,N,00904.7215,E,4.3530,70.662,130507,,*11
$GPGSA,A,3,20,02,23,27,25,13,04,,,,,,2.0,1.2,0.9*3F
$GPGGA,115743,4959.9982,N,00904.7233,E,1,07,1.20,121.9,M,47.908,M,,*79
$GPRMC,115743,A,4959.9982,N,00904.7233,E,4.2589,72.825,130507,,*13
$GPGSA,A,3,20,02,23,27,25,13,04,,,,,,2.0,1.2,0.9*3F
$GPGGA,115744,4959.9985,N,00904.7250,E,1,07,1.20,121.5,M,47.908,M,,*70
$GPRMC,115744,A,4959.9985,N,00904.7250,E,4.4806,74.090,130507,,*1A
$GPGSA,A,3,20,02,23,27,25,13,04,,,,,,2.0,1.2,0.9*3F
$GPGGA,115745,4959.9988,N,00904.7268,E,1,07,1.20,121.0,M,47.908,M,,*72
$GPRMC,115745,A,4959.9988,N,00904.7268,E,4.4806,74.090,130507,,*1D
$GPGSA,A,3,20,02,23,27,25,13,04,,,,,,2.0,1.2,0.9*3F
$GPGGA,115746,4959.9990,N,00904.7285,E,1,07,1.20,122.0,M,47.908,M,,*78
$GPRMC,115746,A,4959.9990,N,00904.7285,E,4.4806,74.090,130507,,*14
$GPGSA,A,3,20,02,23,27,25,13,04,,,,,,2.0,1.2,0.9*3F
$GPGSV,3,1,09,20,32,103,42,02,23,312,38,23,71,063,45,27,17,180,40*70
$GPGSV,3,2,09,17,05,226,35,25,48,142,45,13,73,232,44,04,54,282,45*76
$GPGSV,3,3,09,16,05,070,36*40
$GPGGA,115747,4959.9992,N,00904.7311,E,1,07,1.20,121.7,M,47.908,M,,*73
$GPRMC,115747,A,4959.9992,N,00904.7311,E,4.2589,72.825,130507,,*17
$GPGSA,A,3,20,02,23,27,25,13,04,,,,,,2.0,1.2,0.9*3F
$GPGGA,115748,4959.9995,N,00904.7329,E,1,07,1.20,121.2,M,47.908,M,,*75
$GPRMC,115748,A,4959.9995,N,00904.7329,E,4.1338,77.175,130507,,*12
$GPGSA,A,3,20,02,23,27,25,13,04,,,,,,2.0,1.2,0.9*3F
$GPGGA,115749,5000.0001,N,00904.7347,E,1,07,1.20,121.6,M,47.908,M,,*71
$GPRMC,115749,A,5000.0001,N,00904.7347,E,4.2589,72.825,130507,,*14
$GPGSA,A,3,20,02,23,27,25,13,04,,,,,,2.0,1.2,0.9*3F
$GPGGA,115750,4960.0000,N,00904.7363,E,1,07,1.20,121.8,M,47.908,M,,*7E
$GPRMC,115750,A,4960.0000,N,00904.7363,E,4.2589,72.825,130507,,*15
$GPGSA,A,3,20,02,23,27,25,13,04,,,,,,2.0,1.2,0.9*3F
$GPGGA,115751,5000.0003,N,00904.7381,E,1,07,1.20,121.3,M,47.908,M,,*75
$GPRMC,115751,A,5000.0003,N,00904.7381,E,4.2589,72.825,130507,,*15
$GPGSA,A,3,20,02,23,27,25,13,04,,,,,,2.0,1.2,0.9*3F
$GPGSV,3,1,09,20,32,103,42,02,23,312,38,23,71,063,46,27,17,180,38*7C
$GPGSV,3,2,09,17,05,226,35,25,48,142,43,13,73,232,44,04,54,282,45*70
$GPGSV,3,3,09,16,05,070,36*40
$GPGGA,115752,5000.0009,N,00904.7399,E,1,07,1.20,121.7,M,47.908,M,,*71
$GPRMC,115752,A,5000.0009,N,00904.7399,E,4.3620,78.250,130507,,*16
$GPGSA,A,3,20,02,23,27,25,13,04,,,,,,2.0,1.2,0.9*3F
$GPGGA,115753,5000.0008,N,00904.7415,E,1,07,1.20,121.9,M,47.908,M,,*7C
$GPRMC,115753,A,5000.0008,N,00904.7415,E,4.4806,74.090,130507,,*1A
$GPGSA,A,3,20,02,23,27,25,13,04,,,,,,2.0,1.2,0.9*3F
$GPGGA,115754,5000.0014,N,00904.7433,E,1,07,1.20,122.2,M,47.908,M,,*7A
$GPRMC,115754,A,5000.0014,N,00904.7433,E,4.3965,76.257,130507,,*1C
$GPGSA,A,3,20,02,23,27,25,13,04,,,,,,2.0,1.2,0.9*3F
$GPGGA,115755,5000.0017,N,00904.7451,E,1,07,1.20,121.8,M,47.908,M,,*75
$GPRMC,115755,A,5000.0017,N,00904.7451,E,3.9480,73.774,130507,,*10
$GPGSA,A,3,20,02,23,27,25,13,04,,,,,,2.0,1.2,0.9*3F
$GPGGA,115756,5000.0016,N,00904.7459,E,1,07,1.20,121.9,M,47.908,M,,*7E
$GPRMC,115756,A,5000.0016,N,00904.7459,E,2.0452,77.433,130507,,*19
$GPGSA,A,3,20,02,23,27,25,13,04,,,,,,2.0,1.2,0.9*3F
$GPGSV,3,1,09,20,32,103,36,02,23,312,41,23,71,063,46,27,17,180,38*71
$GPGSV,3,2,09,17,05,226,37,25,48,142,43,13,73,232,45,04,54,282,48*7E
$GPGSV,3,3,09,16,05,070,07*42
$GPGGA,115757,5000.0019,N,00904.7459,E,1,07,1.20,122.7,M,47.908,M,,*7D
$GPRMC,115757,A,5000.0019,N,00904.7459,E,0.3183,240.972,130507,,*21
$GPGSA,A,3,20,02,23,27,25,13,04,,,,,,2.0,1.2,0.9*3F
$GPGGA,115758,5000.0019,N,00904.7459,E,1,07,1.20,122.7,M,47.908,M,,*72
$GPRMC,115758,A,5000.0019,N,00904.7459,E,0.6843,6.434,130507,,*21
$GPGSA,A,3,20,02,23,27,25,13,04,,,,,,2.0,1.2,0.9*3F
$GPGGA,115759,5000.0019,N,00904.7458,E,1,07,1.20,124.1,M,47.908,M,,*72
$GPRMC,115759,A,5000.0019,N,00904.7458,E,0.1562,0.000,130507,,*2D
$GPGSA,A,3,20,02,23,27,25,13,04,,,,,,2.0,1.2,0.9*3F
$GPGGA,115800,5000.0019,N,00904.7458,E,1,07,1.20,124.1,M,47.908,M,,*71
$GPRMC,115800,A,5000.0019,N,00904.7458,E,0.1562,0.000,130507,,*2E
$GPGSA,A,3,20,02,23,27,25,13,04,,,,,,2.0,1.2,0.9*3F
$GPGGA,115801,5000.0019,N,00904.7458,E,1,07,1.20,124.1,M,47.908,M,,*70
$GPRMC,115801,A,5000.0019,N,00904.7458,E,0.1562,0.000,130507,,*2F
$GPGSA,A,3,20,02,23,27,25,13,04,,,,,,2.0,1.2,0.9*3F
$GPGSV,3,1,09,20,32,103,38,02,23,312,45,23,71,063,48,27,17,180,32*7F
$GPGSV,3,2,09,17,05,226,38,25,48,142,41,13,73,232,44,04,54,282,45*7F
$GPGSV,3,3,09,16,05,070,31*47
$GPGGA,115802,5000.0019,N,00904.7458,E,1,07,1.20,124.1,M,47.908,M,,*73
$GPRMC,115802,A,5000.0019,N,00904.7458,E,0.2934,136.599,130507,,*21
$GPGSA,A,3,20,02,23,27,25,13,04,,,,,,2.0,1.2,0.9*3F
$GPGGA,115803,5000.0019,N,00904.7458,E,1,07,1.20,124.1,M,47.908,M,,*72
$GPRMC,115803,A,5000.0019,N,00904.7458,E,0.2095,105.785,130507,,*2D
$GPGSA,A,3,20,02,23,27,25,13,04,,,,,,2.0,1.2,0.9*3F
$GPGGA,115804,5000.0022,N,00904.7458,E,1,07,1.20,124.8,M,47.908,M,,*74
$GPRMC,115804,A,5000.0022,N,00904.7458,E,0.1562,0.000,130507,,*22
$GPGSA,A,3,20,02,23,27,25,13,04,,,,,,2.0,1.2,0.9*3F
$GPGGA,115805,5000.0019,N,00904.7458,E,1,07,1.20,124.1,M,47.908,M,,*74
$GPRMC,115805,A,5000.0019,N,00904.7458,E,0.1562,0.000,130507,,*2B
$GPGSA,A,3,20,02,23,27,25,13,04,,,,,,2.0,1.2,0.9*3F
$GPGGA,115806,5000.0019,N,00904.7458,E,1,07,1.20,124.1,M,47.908,M,,*77
$GPRMC,115806,A,5000.0019,N,00904.7458,E,0.3755,191.783,130507,,*29
$GPGSA,A,3,20,02,23,27,25,13,04,,,,,,2.0,1.2,0.9*3F
$GPGSV,3,1,09,20,32,103,41,02,23,312,39,23,71,063,47,27,17,180,40*70
$GPGSV,3,2,09,17,05,226,36,25,48,142,45,13,73,232,45,04,54,282,43*72
$GPGSV,3,3,09,16,05,070,31*47
$GPGGA,115807,5000.0015,N,00904.7457,E,1,07,1.20,124.7,M,47.908,M,,*73
$GPRMC,115807,A,5000.0015,N,00904.7457,E,0.7337,111.753,130507,,*2A
$GPGSA,A,3,20,02,23,27,25,13,04,,,,,,2.0,1.2,0.9*3F
$GPGGA,115808,5000.0019,N,00904.7458,E,1,07,1.20,124.1,M,47.908,M,,*79
$GPRMC,115808,A,5000.0019,N,00904.7458,E,1.5782,56.412,130507,,*1B
$GPGSA,A,3,20,02,23,27,25,13,04,,,,,,2.0,1.2,0.9*3F
$GPGGA,115809,5000.0017,N,00904.7465,E,1,07,1.20,125.6,M,47.908,M,,*7E
$GPRMC,115809,A,5000.0017,N,00904.7465,E,1.2864,74.243,130507,,*18
$GPGSA,A,3,20,02,23,27,25,13,04,,,,,,2.0,1.2,0.9*3F
$GPGGA,115810,5000.0017,N,00904.7465,E,1,07,1.20,125.6,M,47.908,M,,*76
$GPRMC,115810,A,5000.0017,N,00904.7465,E,2.0452,77.433,130507,,*1A
$GPGSA,A,3,20,02,23,27,25,13,04,,,,,,2.0,1.2,0.9*3F
$GPGGA,115811,5000.0021,N,00904.7474,E,1,07,1.20,125.0,M,47.908,M,,*74
$GPRMC,115811,A,5000.0021,N,00904.7474,E,2.2744,79.471,130507,,*10
$GPGSA,A,3,20,02,23,27,25,13,04,,,,,,2.0,1.2,0.9*3F
$GPGSV,3,1,09,20,32,103,41,02,23,312,37,23,71,063,45,27,17,180,37*7C
$GPGSV,3,2,09,17,05,226,34,25,48,142,43,13,73,232,42,04,54,282,45*77
$GPGSV,3,3,09,16,05,070,38*4E
$GPGGA,115812,5000.0020,N,00904.7491,E,1,07,1.20,125.2,M,47.908,M,,*7F
$GPRMC,115812,A,5000.0020,N,00904.7491,E,2.7234,85.774,130507,,*1B
$GPGSA,A,3,20,02,23,27,25,13,04,,,,,,2.0,1.2,0.9*3F
$GPGGA,115813,5000.0023,N,00904.7501,E,1,07,1.20,124.7,M,47.908,M,,*71
$GPRMC,115813,A,5000.0023,N,00904.7501,E,3.2699,81.524,130507,,*15
$GPGSA,A,3,20,02,23,27,25,13,04,,,,,,2.0,1.2,0.9*3F
$GPGGA,115814,5000.0021,N,00904.7525,E,1,07,1.20,125.0,M,47.908,M,,*74
$GPRMC,115814,A,5000.0021,N,00904.7525,E,4.4806,74.090,130507,,*1F
$GPGSA,A,3,20,02,23,27,25,13,04,,,,,,2.0,1.2,0.9*3F
$GPGGA,115815,5000.0024,N,00904.7543,E,1,07,1.20,124.6,M,47.908,M,,*77
$GPRMC,115815,A,5000.0024,N,00904.7543,E,5.1518,70.811,130507,,*18
$GPGSA,A,3,20,02,23,27,25,13,04,,,,,,2.0,1.2,0.9*3F
$GPGGA,115816,5000.0034,N,00904.7562,E,1,07,1.20,124.3,M,47.908,M,,*73
$GPRMC,115816,A,5000.0034,N,00904.7562,E,4.8385,71.455,130507,,*1E
$GPGSA,A,3,20,02,23,27,25,13,04,,,,,,2.0,1.2,0.9*3F
$GPGSV,3,1,09,20,32,103,44,02,23,312,40,23,71,063,46,27,17,180,39*74
$GPGSV,3,2,09,17,05,226,37,25,48,142,45,13,73,232,44,04,54,280,45*76
$GPGSV,3,3,09,16,06,070,37*42
$GPGGA,115817,5000.0036,N,00904.7589,E,1,07,1.20,123.9,M,47.908,M,,*78
$GPRMC,115817,A,5000.0036,N,00904.7589,E,4.7911,73.227,130507,,*11
$GPGSA,A,3,20,02,23,27,25,13,04,,,,,,2.0,1.2,0.9*3F
$GPGGA,115818,5000.0039,N,00904.7606,E,1,07,1.20,123.5,M,47.908,M,,*70
$GPRMC,115818,A,5000.0039,N,00904.7606,E,5.0133,74.339,130507,,*12
$GPGSA,A,3,20,02,23,27,25,13,04,,,,,,2.0,1.2,0.9*3F
$GPGGA,115819,5000.0041,N,00904.7623,E,1,07,1.20,124.5,M,47.908,M,,*7E
$GPRMC,115819,A,5000.0041,N,00904.7623,E,5.0577,72.636,130507,,*13
$GPGSA,A,3,20,02,23,27,25,13,04,,,,,,2.0,1.2,0.9*3F
$GPGGA,115820,5000.0047,N,00904.7650,E,1,07,1.20,123.5,M,47.908,M,,*71
$GPRMC,115820,A,5000.0047,N,00904.7650,E,5.8114,73.966,130507,,*19
$GPGSA,A,3,20,02,23,27,25,13,04,,,,,,2.0,1.2,0.9*3F
$GPGGA,115821,5000.0053,N,00904.7676,E,1,07,1.20,123.9,M,47.908,M,,*7D
$GPRMC,115821,A,5000.0053,N,00904.7676,E,6.0346,74.863,130507,,*14
$GPGSA,A,3,20,02,23,27,25,13,04,,,,,,2.0,1.2,0.9*3F
$GPGSV,3,1,09,20,32,103,42,02,23,312,38,23,71,063,46,27,17,180,39*7D
$GPGSV,3,2,09,17,05,226,37,25,48,142,44,13,73,232,44,04,54,280,45*77
$GPGSV,3,3,09,16,06,070,35*40
$GPGGA,115822,5000.0055,N,00904.7703,E,1,07,1.20,123.6,M,47.908,M,,*74
$GPRMC,115822,A,5000.0055,N,00904.7703,E,6.2225,77.090,130507,,*13
$GPGSA,A,3,20,02,23,27,25,13,04,,,,,,2.0,1.2,0.9*3F
$GPGGA,115823,5000.0061,N,00904.7729,E,1,07,1.20,124.0,M,47.908,M,,*7B
$GPRMC,115823,A,5000.0061,N,00904.7729,E,6.3441,74.173,130507,,*17
$GPGSA,A,3,20,02,23,27,25,13,04,,,,,,2.0,1.2,0.9*3F
$GPGGA,115824,5000.0063,N,00904.7755,E,1,07,1.20,123.7,M,47.908,M,,*75
$GPRMC,115824,A,5000.0063,N,00904.7755,E,6.2592,75.697,130507,,*1B
$GPGSA,A,3,20,02,23,27,25,13,04,,,,,,2.0,1.2,0.9*3F
$GPGGA,115825,5000.0068,N,00904.7781,E,1,07,1.20,124.1,M,47.908,M,,*77
$GPRMC,115825,A,5000.0068,N,00904.7781,E,6.0346,74.864,130507,,*16
$GPGSA,A,3,20,02,23,27,25,13,04,,,,,,2.0,1.2,0.9*3F
$GPGGA,115826,5000.0074,N,00904.7807,E,1,07,1.20,124.6,M,47.908,M,,*7F
$GPRMC,115826,A,5000.0074,N,00904.7807,E,5.8114,73.966,130507,,*13
$GPGSA,A,3,20,02,23,27,25,13,04,,,,,,2.0,1.2,0.9*3F
$GPGSV,3,1,09,20,32,103,41,02,23,312,40,23,71,063,47,27,17,180,38*71
$GPGSV,3,2,09,17,05,226,38,25,48,142,43,13,73,232,44,04,54,280,45*7F
$GPGSV,3,3,09,16,06,070,34*41
$GPGGA,115827,5000.0077,N,00904.7825,E,1,07,1.20,124.2,M,47.908,M,,*79
$GPRMC,115827,A,5000.0077,N,00904.7825,E,5.5018,74.712,130507,,*1B
$GPGSA,A,3,20,02,23,27,25,13,04,,,,,,2.0,1.2,0.9*3F
$GPGGA,115828,5000.0082,N,00904.7851,E,1,07,1.20,124.6,M,47.908,M,,*7B
$GPRMC,115828,A,5000.0082,N,00904.7851,E,5.0133,74.340,130507,,*13
$GPGSA,A,3,20,02,23,27,25,13,04,,,,,,2.0,1.2,0.9*3F
$GPGGA,115829,5000.0085,N,00904.7869,E,1,07,1.20,124.2,M,47.908,M,,*72
$GPRMC,115829,A,5000.0085,N,00904.7869,E,4.9296,76.277,130507,,*1D
$GPGSA,A,3,20,02,23,27,25,13,04,,,,,,2.0,1.2,0.9*3F
$GPGGA,115830,5000.0091,N,00904.7895,E,1,07,1.20,124.6,M,47.908,M,,*78
$GPRMC,115830,A,5000.0091,N,00904.7895,E,4.9296,76.277,130507,,*13
$GPGSA,A,3,20,02,23,27,25,13,04,,,,,,2.0,1.2,0.9*3F
$GPGGA,115831,5000.0094,N,00904.7913,E,1,07,1.20,124.2,M,47.908,M,,*77
$GPRMC,115831,A,5000.0094,N,00904.7913,E,4.7042,75.236,130507,,*1B
$GPGSA,A,3,20,02,23,27,25,13,04,,,,,,2.0,1.2,0.9*3F
$GPGSV,3,1,09,20,32,103,41,02,23,312,37,23,71,063,46,27,17,180,39*71
$GPGSV,3,2,09,17,05,226,37,25,48,142,45,13,73,232,45,04,54,280,46*74
$GPGSV,3,3,09,16,06,070,34*41
$GPGGA,115832,5000.0092,N,00904.7929,E,1,07,1.20,124.4,M,47.908,M,,*7D
$GPRMC,115832,A,5000.0092,N,00904.7929,E,4.3620,78.251,130507,,*1D
$GPGSA,A,3,20,02,23,27,25,13,04,,,,,,2.0,1.2,0.9*3F
$GPGGA,115833,5000.0098,N,00904.7955,E,1,07,1.20,124.8,M,47.908,M,,*71
$GPRMC,115833,A,5000.0098,N,00904.7955,E,4.3620,78.251,130507,,*1D
$GPGSA,A,3,20,02,23,27,25,13,04,,,,,,2.0,1.2,0.9*3F
$GPGGA,115834,5000.0101,N,00904.7973,E,1,07,1.20,124.4,M,47.908,M,,*7F
$GPRMC,115834,A,5000.0101,N,00904.7973,E,4.3620,78.251,130507,,*1F
$GPGSA,A,3,20,02,23,27,25,13,04,,,,,,2.0,1.2,0.9*3F
$GPGGA,115835,5000.0103,N,00904.7990,E,1,07,1.20,125.3,M,47.908,M,,*77
$GPRMC,115835,A,5000.0103,N,00904.7990,E,4.5916,79.220,130507,,*1A
$GPGSA,A,3,20,02,23,27,25,13,04,,,,,,2.0,1.2,0.9*3F
$GPGGA,115836,5000.0106,N,00904.8008,E,1,07,1.20,124.9,M,47.908,M,,*7D
$GPRMC,115836,A,5000.0106,N,00904.8008,E,4.5916,79.220,130507,,*1B
$GPGSA,A,3,20,02,23,27,25,13,04,,,,,,2.0,1.2,0.9*3F
$GPGSV,3,1,09,20,32,103,42,02,23,312,38,23,71,063,45,27,17,180,39*7E
$GPGSV,3,2,09,17,05,226,38,25,48,142,44,13,73,232,42,04,54,280,46*7D
$GPGSV,3,3,09,16,06,070,32*47
$GPGGA,115837,5000.0104,N,00904.8032,E,1,07,1.20,125.2,M,47.908,M,,*7D
$GPRMC,115837,A,5000.0104,N,00904.8032,E,4.2676,82.620,130507,,*1F
$GPGSA,A,3,20,02,23,27,25,13,04,,,,,,2.0,1.2,0.9*3F
$GPGGA,115838,5000.0106,N,00904.8049,E,1,07,1.20,126.2,M,47.908,M,,*7F
$GPRMC,115838,A,5000.0106,N,00904.8049,E,4.2676,82.620,130507,,*1E
$GPGSA,A,3,20,02,23,27,25,13,04,,,,,,2.0,1.2,0.9*3F
$GPGGA,115839,5000.0109,N,00904.8067,E,1,07,1.20,125.7,M,47.908,M,,*7B
$GPRMC,115839,A,5000.0109,N,00904.8067,E,4.5022,83.383,130507,,*11
$GPGSA,A,3,20,02,23,27,25,13,04,,,,,,2.0,1.2,0.9*3F
$GPGGA,115840,5000.0107,N,00904.8083,E,1,07,1.20,125.9,M,47.908,M,,*7F
$GPRMC,115840,A,5000.0107,N,00904.8083,E,4.5022,83.383,130507,,*1B
$GPGSA,A,3,20,02,23,27,25,13,04,,,,,,2.0,1.2,0.9*3F
$GPGGA,115841,5000.0113,N,00904.8109,E,1,07,1.20,126.4,M,47.908,M,,*76
$GPRMC,115841,A,5000.0113,N,00904.8109,E,4.7375,84.070,130507,,*17
$GPGSA,A,3,20,02,23,27,25,13,04,,,,,,2.0,1.2,0.9*3F
$GPGSV,3,1,09,20,32,103,41,02,23,312,36,23,71,063,46,27,17,180,38*71
$GPGSV,3,2,09,17,05,226,39,25,48,142,45,13,73,232,44,04,54,280,46*7B
$GPGSV,3,3,09,16,06,070,31*44
$GPGGA,115842,5000.0112,N,00904.8126,E,1,07,1.20,126.6,M,47.908,M,,*7B
$GPRMC,115842,A,5000.0112,N,00904.8126,E,4.7375,84.070,130507,,*18
$GPGSA,A,3,20,02,23,27,25,13,04,,,,,,2.0,1.2,0.9*3F
$GPGGA,115843,5000.0114,N,00904.8144,E,1,07,1.20,126.2,M,47.908,M,,*7C
$GPRMC,115843,A,5000.0114,N,00904.8144,E,4.7375,84.070,130507,,*1B
$GPGSA,A,3,20,02,23,27,25,13,04,,,,,,2.0,1.2,0.9*3F
$GPGGA,115844,5000.0112,N,00904.8169,E,1,07,1.20,126.5,M,47.908,M,,*75
$GPRMC,115844,A,5000.0112,N,00904.8169,E,4.6762,88.168,130507,,*12
$GPGSA,A,3,20,02,23,27,25,13,04,,,,,,2.0,1.2,0.9*3F
$GPGGA,115845,5000.0115,N,00904.8186,E,1,07,1.20,126.0,M,47.908,M,,*77
$GPRMC,115845,A,5000.0115,N,00904.8186,E,4.7375,84.070,130507,,*12
$GPGSA,A,3,20,02,23,27,25,13,04,,,,,,2.0,1.2,0.9*3F
$GPGGA,115846,5000.0118,N,00904.8204,E,1,07,1.20,125.6,M,47.908,M,,*75
$GPRMC,115846,A,5000.0118,N,00904.8204,E,4.4375,87.690,130507,,*1D
$GPGSA,A,3,20,02,23,27,25,13,04,,,,,,2.0,1.2,0.9*3F
$GPGSV,3,1,09,20,32,105,42,02,23,312,37,23,70,063,46,27,17,180,39*75
$GPGSV,3,2,09,17,05,225,39,25,48,142,45,13,74,232,45,04,54,280,46*7E
$GPGSV,3,3,09,16,06,070,29*4D
$GPGGA,115847,5000.0117,N,00904.8221,E,1,07,1.20,125.8,M,47.908,M,,*72
$GPRMC,115847,A,5000.0117,N,00904.8221,E,4.4375,87.690,130507,,*14
$GPGSA,A,3,20,02,23,27,25,13,04,,,,,,2.0,1.2,0.9*3F
$GPGGA,115848,5000.0115,N,00904.8246,E,1,07,1.20,126.1,M,47.908,M,,*74
$GPRMC,115848,A,5000.0115,N,00904.8246,E,4.4375,87.690,130507,,*18
$GPGSA,A,3,20,02,23,27,25,13,04,,,,,,2.0,1.2,0.9*3F
$GPGGA,115849,5000.0117,N,00904.8263,E,1,07,1.20,125.7,M,47.908,M,,*75
$GPRMC,115849,A,5000.0117,N,00904.8263,E,4.6762,88.169,130507,,*12
$GPGSA,A,3,20,02,23,27,25,13,04,,,,,,2.0,1.2,0.9*3F
$GPGGA,115850,5000.0116,N,00904.8280,E,1,07,1.20,125.9,M,47.908,M,,*7F
$GPRMC,115850,A,5000.0116,N,00904.8280,E,4.9152,88.600,130507,,*14
$GPGSA,A,3,20,02,23,27,25,13,04,,,,,,2.0,1.2,0.9*3F
$GPGGA,115851,5000.0118,N,00904.8306,E,1,07,1.20,125.5,M,47.908,M,,*73
$GPRMC,115851,A,5000.0118,N,00904.8306,E,4.9152,88.600,130507,,*14
$GPGSA,A,3,20,02,23,27,25,13,04,,,,,,2.0,1.2,0.9*3F
$GPGSV,3,1,09,20,32,105,42,02,23,312,37,23,70,063,46,27,17,180,38*74
$GPGSV,3,2,09,17,05,225,38,25,48,142,45,13,74,232,43,04,54,280,46*79
$GPGSV,3,3,09,16,06,070,28*4C
$GPGGA,115852,5000.0117,N,00904.8323,E,1,07,1.20,125.7,M,47.908,M,,*7A
$GPRMC,115852,A,5000.0117,N,00904.8323,E,4.9152,88.600,130507,,*1F
$GPGSA,A,3,20,02,23,27,25,13,04,,,,,,2.0,1.2,0.9*3F
$GPGGA,115853,5000.0115,N,00904.8347,E,1,07,1.20,126.1,M,47.908,M,,*7E
$GPRMC,115853,A,5000.0115,N,00904.8347,E,4.6762,88.169,130507,,*1C
$GPGSA,A,3,20,02,23,27,25,13,04,,,,,,2.0,1.2,0.9*3F
$GPGGA,115854,5000.0117,N,00904.8364,E,1,07,1.20,127.0,M,47.908,M,,*7A
$GPRMC,115854,A,5000.0117,N,00904.8364,E,4.6762,88.169,130507,,*18
$GPGSA,A,3,20,02,23,27,25,13,04,,,,,,2.0,1.2,0.9*3F
$GPGGA,115855,5000.0120,N,00904.8382,E,1,07,1.20,126.6,M,47.908,M,,*70
$GPRMC,115855,A,5000.0120,N,00904.8382,E,4.6762,88.169,130507,,*15
$GPGSA,A,3,20,02,23,27,25,13,04,,,,,,2.0,1.2,0.9*3F
$GPGGA,115856,5000.0118,N,00904.8407,E,1,07,1.20,126.9,M,47.908,M,,*7D
$GPRMC,115856,A,5000.0118,N,00904.8407,E,4.6762,88.169,130507,,*17
$GPGSA,A,3,20,02,23,27,25,13,04,,,,,,2.0,1.2,0.9*3F
$GPGSV,3,1,09,20,32,105,42,02,23,312,36,23,70,063,47,27,17,180,39*75
$GPGSV,3,2,09,17,05,225,39,25,48,142,44,13,74,232,45,04,54,280,46*7F
$GPGSV,3,3,09,16,06,070,29*4D
$GPGGA,115857,5000.0117,N,00904.8423,E,1,07,1.20,127.1,M,47.908,M,,*7C
$GPRMC,115857,A,5000.0117,N,00904.8423,E,4.9152,88.600,130507,,*1D
$GPGSA,A,3,20,02,23,27,25,13,04,,,,,,2.0,1.2,0.9*3F
$GPGGA,115858,5000.0119,N,00904.8449,E,1,07,1.20,126.8,M,47.908,M,,*79
$GPRMC,115858,A,5000.0119,N,00904.8449,E,4.6762,88.169,130507,,*12
$GPGSA,A,3,20,02,23,27,25,13,04,,,,,,2.0,1.2,0.9*3F
$GPGGA,115859,5000.0117,N,00904.8466,E,1,07,1.20,127.0,M,47.908,M,,*72
$GPRMC,115859,A,5000.0117,N,00904.8466,E,4.6762,88.169,130507,,*10
$GPGSA,A,3,20,02,23,27,25,13,04,,,,,,2.0,1.2,0.9*3F
$GPGGA,115900,5000.0120,N,00904.8484,E,1,07,1.20,126.5,M,47.908,M,,*73
$GPRMC,115900,A,5000.0120,N,00904.8484,E,4.6762,88.169,130507,,*15
$GPGSA,A,3,20,02,23,27,25,13,04,,,,,,2.0,1.2,0.9*3F
$GPGGA,115901,5000.0118,N,00904.8508,E,1,07,1.20,126.8,M,47.908,M,,*71
$GPRMC,115901,A,5000.0118,N,00904.8508,E,4.6762,88.169,130507,,*1A
$GPGSA,A,3,20,02,23,27,25,13,04,,,,,,2.0,1.2,0.9*3F
$GPGSV,3,1,09,20,32,105,42,02,23,312,37,23,70,063,47,27,17,180,38*75
$GPGSV,3,2,09,17,05,225,39,25,48,142,45,13,74,232,45,04,54,280,45*7D
$GPGSV,3,3,09,16,06,070,31*44
$GPGGA,115902,5000.0121,N,00904.8526,E,1,07,1.20,126.4,M,47.908,M,,*78
$GPRMC,115902,A,5000.0121,N,00904.8526,E,4.9152,88.601,130507,,*1C
$GPGSA,A,3,20,02,23,27,25,13,04,,,,,,2.0,1.2,0.9*3F
$GPGGA,115903,5000.0120,N,00904.8543,E,1,07,1.20,126.6,M,47.908,M,,*79
$GPRMC,115903,A,5000.0120,N,00904.8543,E,4.6762,88.169,130507,,*1C
$GPGSA,A,3,20,02,23,27,25,13,04,,,,,,2.0,1.2,0.9*3F
$GPGGA,115904,5000.0122,N,00904.8569,E,1,07,1.20,126.3,M,47.908,M,,*71
$GPRMC,115904,A,5000.0122,N,00904.8569,E,4.7239,85.955,130507,,*11
$GPGSA,A,3,20,02,23,27,25,13,04,,,,,,2.0,1.2,0.9*3F
$GPGGA,115905,5000.0121,N,00904.8585,E,1,07,1.20,126.5,M,47.908,M,,*77
$GPRMC,115905,A,5000.0121,N,00904.8585,E,4.6762,88.169,130507,,*11
$GPGSA,A,3,20,02,23,27,25,13,04,,,,,,2.0,1.2,0.9*3F
$GPGGA,115906,5000.0123,N,00904.8603,E,1,07,1.20,126.1,M,47.908,M,,*7F
$GPRMC,115906,A,5000.0123,N,00904.8603,E,4.9734,84.693,130507,,*1F
$GPGSA,A,3,20,02,23,27,25,13,04,,,,,,2.0,1.2,0.9*3F
$GPGSV,3,1,09,20,32,105,43,02,23,312,39,23,70,063,46,27,17,180,38*7B
$GPGSV,3,2,09,17,05,225,38,25,48,142,44,13,74,232,45,04,54,280,45*7D
$GPGSV,3,3,09,16,06,070,00*46
$GPGGA,115907,5000.0121,N,00904.8628,E,1,07,1.20,126.4,M,47.908,M,,*70
$GPRMC,115907,A,5000.0121,N,00904.8628,E,4.9614,86.489,130507,,*1D
$GPGSA,A,3,20,02,23,27,25,13,04,,,,,,2.0,1.2,0.9*3F
$GPGGA,115908,5000.0124,N,00904.8646,E,1,07,1.20,125.9,M,47.908,M,,*7C
$GPRMC,115908,A,5000.0124,N,00904.8646,E,4.9152,88.601,130507,,*16
$GPGSA,A,3,20,02,23,27,25,13,04,,,,,,2.0,1.2,0.9*3F
$GPGGA,115909,5000.0126,N,00904.8671,E,1,07,1.20,127.0,M,47.908,M,,*70
$GPRMC,115909,A,5000.0126,N,00904.8671,E,4.9734,84.693,130507,,*10
$GPGSA,A,3,20,02,23,27,25,13,04,,,,,,2.0,1.2,0.9*3F
$GPGGA,115910,5000.0128,N,00904.8689,E,1,07,1.20,126.6,M,47.908,M,,*76
$GPRMC,115910,A,5000.0128,N,00904.8689,E,4.7239,85.955,130507,,*13
$GPGSA,A,3,20,02,23,27,25,13,04,,,,,,2.0,1.2,0.9*3F
$GPGGA,115911,5000.0127,N,00904.8713,E,1,07,1.20,126.9,M,47.908,M,,*75
$GPRMC,115911,A,5000.0127,N,00904.8713,E,4.7239,85.955,130507,,*1F
$GPGSA,A,3,20,02,23,27,25,13,04,,,,,,2.0,1.2,0.9*3F
$GPGSV,3,1,09,20,32,105,42,02,23,312,36,23,70,063,47,27,17,180,39*75
$GPGSV,3,2,09,17,05,225,37,25,48,142,46,13,74,232,45,04,54,280,45*70
$GPGSV,3,3,09,16,06,070,00*46
$GPGGA,115912,5000.0129,N,00904.8731,E,1,07,1.20,126.4,M,47.908,M,,*75
$GPRMC,115912,A,5000.0129,N,00904.8731,E,4.7375,84.071,130507,,*15
$GPGSA,A,3,20,02,23,27,25,13,04,,,,,,2.0,1.2,0.9*3F
$GPGGA,115913,5000.0128,N,00904.8748,E,1,07,1.20,126.6,M,47.908,M,,*79
$GPRMC,115913,A,5000.0128,N,00904.8748,E,4.7375,84.071,130507,,*1B
$GPGSA,A,3,20,02,23,27,25,13,04,,,,,,2.0,1.2,0.9*3F
$GPGGA,115914,5000.0130,N,00904.8774,E,1,07,1.20,126.3,M,47.908,M,,*7D
$GPRMC,115914,A,5000.0130,N,00904.8774,E,4.7375,84.071,130507,,*1A
$GPGSA,A,3,20,02,23,27,25,13,04,,,,,,2.0,1.2,0.9*3F
$GPGGA,115915,5000.0129,N,00904.8790,E,1,07,1.20,126.5,M,47.908,M,,*78
$GPRMC,115915,A,5000.0129,N,00904.8790,E,4.7375,84.071,130507,,*19
$GPGSA,A,3,20,02,23,27,25,13,04,,,,,,2.0,1.2,0.9*3F
$GPGGA,115916,5000.0135,N,00904.8808,E,1,07,1.20,126.8,M,47.908,M,,*75
$GPRMC,115916,A,5000.0135,N,00904.8808,E,4.7375,84.071,130507,,*19
$GPGSA,A,3,20,02,23,27,25,13,04,,,,,,2.0,1.2,0.9*3F
$GPGSV,3,1,09,20,32,105,42,02,23,312,37,23,70,061,47,27,17,180,38*77
$GPGSV,3,2,09,17,05,225,37,25,49,142,44,13,74,234,45,04,54,280,45*75
$GPGSV,3,3,09,16,06,070,00*46
$GPGGA,115917,5000.0133,N,00904.8833,E,1,07,1.20,127.2,M,47.908,M,,*71
$GPRMC,115917,A,5000.0133,N,00904.8833,E,4.7239,85.955,130507,,*11
$GPGSA,A,3,20,02,23,27,25,13,04,,,,,,2.0,1.2,0.9*3F
$GPGGA,115918,5000.0136,N,00904.8851,E,1,07,1.20,126.7,M,47.908,M,,*7B
$GPRMC,115918,A,5000.0136,N,00904.8851,E,4.7375,84.071,130507,,*18
$GPGSA,A,3,20,02,23,27,25,13,04,,,,,,2.0,1.2,0.9*3F
$GPGGA,115919,5000.0134,N,00904.8876,E,1,07,1.20,127.0,M,47.908,M,,*7B
$GPRMC,115919,A,5000.0134,N,00904.8876,E,4.7375,84.071,130507,,*1E
$GPGSA,A,3,20,02,23,27,25,13,04,,,,,,2.0,1.2,0.9*3F
$GPGGA,115920,5000.0137,N,00904.8893,E,1,07,1.20,126.6,M,47.908,M,,*7E
$GPRMC,115920,A,5000.0137,N,00904.8893,E,4.7980,81.935,130507,,*10
$GPGSA,A,3,20,02,23,27,25,13,04,,,,,,2.0,1.2,0.9*3F
$GPGGA,115921,5000.0139,N,00904.8910,E,1,07,1.20,127.6,M,47.908,M,,*7A
$GPRMC,115921,A,5000.0139,N,00904.8910,E,4.8224,80.097,130507,,*1F
$GPGSA,A,3,20,02,23,27,25,13,04,,,,,,2.0,1.2,0.9*3F
$GPGSV,3,1,09,20,32,105,43,02,23,312,39,23,70,061,47,27,17,180,40*77
$GPGSV,3,2,09,17,05,225,42,25,49,142,45,13,74,234,46,04,54,280,44*74
$GPGSV,3,3,09,16,06,070,00*46
$GPGGA,115922,5000.0141,N,00904.8936,E,1,07,1.20,127.2,M,47.908,M,,*76
$GPRMC,115922,A,5000.0141,N,00904.8936,E,4.8224,80.097,130507,,*17
$GPGSA,A,3,20,02,23,27,25,13,04,,,,,,2.0,1.2,0.9*3F
$GPGGA,115923,5000.0140,N,00904.8953,E,1,07,1.20,127.4,M,47.908,M,,*73
$GPRMC,115923,A,5000.0140,N,00904.8953,E,4.7980,81.935,130507,,*1E
$GPGSA,A,3,20,02,23,27,25,13,04,,,,,,2.0,1.2,0.9*3F
$GPGGA,115924,5000.0146,N,00904.8970,E,1,07,1.20,127.8,M,47.908,M,,*7F
$GPRMC,115924,A,5000.0146,N,00904.8970,E,4.7980,81.935,130507,,*1E
$GPGSA,A,3,20,02,23,27,25,13,04,,,,,,2.0,1.2,0.9*3F
$GPGGA,115925,5000.0148,N,00904.8997,E,1,07,1.20,127.4,M,47.908,M,,*75
$GPRMC,115925,A,5000.0148,N,00904.8997,E,4.8224,80.097,130507,,*12
$GPGSA,A,3,20,02,23,27,25,13,04,,,,,,2.0,1.2,0.9*3F
$GPGGA,115926,5000.0147,N,00904.9013,E,1,07,1.20,127.6,M,47.908,M,,*7F
$GPRMC,115926,A,5000.0147,N,00904.9013,E,4.8949,78.055,130507,,*13
$GPGSA,A,3,20,02,23,27,25,13,04,,,,,,2.0,1.2,0.9*3F
$GPGSV,3,1,09,20,32,105,43,02,23,312,39,23,70,061,47,27,17,180,39*79
$GPGSV,3,2,09,17,05,225,40,25,49,142,45,13,74,234,45,04,54,280,45*74
$GPGSV,3,3,09,16,06,070,00*46
$GPGGA,115927,5000.0149,N,00904.9039,E,1,07,1.20,127.3,M,47.908,M,,*7D
$GPRMC,115927,A,5000.0149,N,00904.9039,E,4.8224,80.097,130507,,*1D
$GPGSA,A,3,20,02,23,27,25,13,04,,,,,,2.0,1.2,0.9*3F
$GPGGA,115928,5000.0155,N,00904.9057,E,1,07,1.20,127.6,M,47.908,M,,*72
$GPRMC,115928,A,5000.0155,N,00904.9057,E,4.8949,78.055,130507,,*1E
$GPGSA,A,3,20,02,23,27,25,13,04,,,,,,2.0,1.2,0.9*3F
$GPGGA,115929,5000.0158,N,00904.9075,E,1,07,1.20,127.2,M,47.908,M,,*7A
$GPRMC,115929,A,5000.0158,N,00904.9075,E,5.2372,75.359,130507,,*19
$GPGSA,A,3,20,02,23,27,25,13,04,,,,,,2.0,1.2,0.9*3F
$GPGGA,115930,5000.0160,N,00904.9101,E,1,07,1.20,126.9,M,47.908,M,,*71
$GPRMC,115930,A,5000.0160,N,00904.9101,E,4.9296,76.278,130507,,*18
$GPGSA,A,3,20,02,23,27,25,13,04,,,,,,2.0,1.2,0.9*3F
$GPGGA,115931,5000.0163,N,00904.9119,E,1,07,1.20,126.4,M,47.908,M,,*77
$GPRMC,115931,A,5000.0163,N,00904.9119,E,4.8949,78.055,130507,,*18
$GPGSA,A,3,20,02,23,27,25,13,04,,,,,,2.0,1.2,0.9*3F
$GPGSV,3,1,09,20,32,105,42,02,23,312,39,23,70,061,46,27,17,180,39*79
$GPGSV,3,2,09,17,05,225,38,25,49,142,44,13,74,234,45,04,54,280,45*7A
$GPGSV,3,3,09,16,06,070,00*46
$GPGGA,115932,5000.0168,N,00904.9145,E,1,07,1.20,126.9,M,47.908,M,,*7B
$GPRMC,115932,A,5000.0168,N,00904.9145,E,4.8949,78.055,130507,,*19
$GPGSA,A,3,20,02,23,27,25,13,04,,,,,,2.0,1.2,0.9*3F
$GPGGA,115933,5000.0167,N,00904.9161,E,1,07,1.20,127.1,M,47.908,M,,*7A
$GPRMC,115933,A,5000.0167,N,00904.9161,E,4.7911,73.229,130507,,*11
$GPGSA,A,3,20,02,23,27,25,13,04,,,,,,2.0,1.2,0.9*3F
$GPGGA,115934,5000.0169,N,00904.9188,E,1,07,1.20,126.8,M,47.908,M,,*7C
$GPRMC,115934,A,5000.0169,N,00904.9188,E,4.7911,73.229,130507,,*1F
$GPGSA,A,3,20,02,23,27,25,13,04,,,,,,2.0,1.2,0.9*3F
$GPGGA,115935,5000.0175,N,00904.9205,E,1,07,1.20,127.1,M,47.908,M,,*7E
$GPRMC,115935,A,5000.0175,N,00904.9205,E,5.0133,74.341,130507,,*13
$GPGSA,A,3,20,02,23,27,25,13,04,,,,,,2.0,1.2,0.9*3F
$GPGGA,115936,5000.0178,N,00904.9223,E,1,07,1.20,126.7,M,47.908,M,,*73
$GPRMC,115936,A,5000.0178,N,00904.9223,E,5.0133,74.341,130507,,*19
$GPGSA,A,3,20,02,23,27,25,13,04,,,,,,2.0,1.2,0.9*3F
$GPGSV,3,1,09,20,32,105,41,02,23,312,40,23,70,061,46,27,17,180,38*75
$GPGSV,3,2,09,17,05,225,40,25,49,142,45,13,74,234,46,04,54,280,42*70
$GPGSV,3,3,09,16,06,070,00*46
$GPGGA,115937,5000.0184,N,00904.9241,E,1,07,1.20,127.0,M,47.908,M,,*73
$GPRMC,115937,A,5000.0184,N,00904.9241,E,5.0133,74.342,130507,,*1C
$GPGSA,A,3,20,02,23,27,25,13,04,,,,,,2.0,1.2,0.9*3F
$GPGGA,115938,5000.0187,N,00904.9267,E,1,07,1.20,126.7,M,47.908,M,,*7D
$GPRMC,115938,A,5000.0187,N,00904.9267,E,4.7911,73.229,130507,,*11
$GPGSA,A,3,20,02,23,27,25,13,04,,,,,,2.0,1.2,0.9*3F
$GPGGA,115939,5000.0193,N,00904.9285,E,1,07,1.20,127.0,M,47.908,M,,*73
$GPRMC,115939,A,5000.0193,N,00904.9285,E,4.5709,72.008,130507,,*1C
$GPGSA,A,3,20,02,23,27,25,13,04,,,,,,2.0,1.2,0.9*3F
$GPGGA,115940,5000.0196,N,00904.9303,E,1,07,1.20,126.6,M,47.908,M,,*70
$GPRMC,115940,A,5000.0196,N,00904.9303,E,4.8385,71.458,130507,,*17
$GPGSA,A,3,20,02,23,27,25,13,04,,,,,,2.0,1.2,0.9*3F
$GPGGA,115941,5000.0198,N,00904.9319,E,1,07,1.20,127.5,M,47.908,M,,*76
$GPRMC,115941,A,5000.0198,N,00904.9319,E,4.8385,71.458,130507,,*13
$GPGSA,A,3,20,02,23,27,25,13,04,,,,,,2.0,1.2,0.9*3F
$GPGSV,3,1,09,20,32,105,34,02,23,312,37,23,70,061,47,27,17,180,38*76
$GPGSV,3,2,09,17,05,225,40,25,49,142,44,13,74,234,44,04,54,280,34*72
$GPGSV,3,3,09,16,06,070,00*46
$GPGGA,115942,5000.0204,N,00904.9337,E,1,07,1.20,127.9,M,47.908,M,,*73
$GPRMC,115942,A,5000.0204,N,00904.9337,E,5.0577,72.638,130507,,*1F
$GPGSA,A,3,20,02,23,27,25,13,04,,,,,,2.0,1.2,0.9*3F
$GPGGA,115943,5000.0206,N,00904.9363,E,1,07,1.20,127.5,M,47.908,M,,*7D
$GPRMC,115943,A,5000.0206,N,00904.9363,E,4.9359,69.576,130507,,*1C
$GPGSA,A,3,20,02,23,27,25,13,04,,,,,,2.0,1.2,0.9*3F
$GPGGA,115944,5000.0212,N,00904.9381,E,1,07,1.20,127.9,M,47.908,M,,*7F
$GPRMC,115944,A,5000.0212,N,00904.9381,E,5.1517,70.814,130507,,*16
$GPGSA,A,3,20,02,23,27,25,13,04,,,,,,2.0,1.2,0.9*3F
$GPGGA,115945,5000.0219,N,00904.9399,E,1,07,1.20,128.2,M,47.908,M,,*78
$GPRMC,115945,A,5000.0219,N,00904.9399,E,4.7911,73.229,130507,,*1F
$GPGSA,A,3,20,02,23,27,25,13,04,,,,,,2.0,1.2,0.9*3F
$GPGGA,115946,5000.0221,N,00904.9417,E,1,07,1.20,127.8,M,47.908,M,,*74
$GPRMC,115946,A,5000.0221,N,00904.9417,E,4.6215,70.166,130507,,*13
$GPGSA,A,3,20,02,23,27,25,13,04,,,,,,2.0,1.2,0.9*3F
$GPGSV,3,1,09,20,32,105,34,02,23,312,40,23,70,061,41,27,17,180,38*70
$GPGSV,3,2,09,17,05,225,41,25,49,142,36,13,74,234,44,04,54,280,44*71
$GPGSV,3,3,09,16,06,070,00*46
$GPGGA,115947,5000.0224,N,00904.9434,E,1,07,1.20,128.7,M,47.908,M,,*71
$GPRMC,115947,A,5000.0224,N,00904.9434,E,4.6215,70.166,130507,,*16
$GPGSA,A,3,20,02,23,27,25,13,04,,,,,,2.0,1.2,0.9*3F
$GPGGA,115948,5000.0230,N,00904.9451,E,1,07,1.20,129.1,M,47.908,M,,*7F
$GPRMC,115948,A,5000.0230,N,00904.9451,E,4.7911,73.229,130507,,*1A
$GPGSA,A,3,20,02,23,27,25,13,04,,,,,,2.0,1.2,0.9*3F
$GPGGA,115949,5000.0233,N,00904.9469,E,1,07,1.20,128.6,M,47.908,M,,*70
$GPRMC,115949,A,5000.0233,N,00904.9469,E,4.6669,77.093,130507,,*15
$GPGSA,A,3,20,02,23,27,25,13,04,,,,,,2.0,1.2,0.9*3F
$GPGGA,115950,5000.0234,N,00904.9494,E,1,07,1.20,129.7,M,47.908,M,,*7D
$GPRMC,115950,A,5000.0234,N,00904.9494,E,4.6669,77.093,130507,,*18
$GPGSA,A,3,20,02,23,27,25,13,04,,,,,,2.0,1.2,0.9*3F
$GPGGA,115951,5000.0240,N,00904.9512,E,1,06,2.00,130.1,M,47.908,M,,*7E
$GPRMC,115951,A,5000.0240,N,00904.9512,E,4.7042,75.238,130507,,*1A
$GPGSA,A,3,20,02,23,25,13,04,,,,,,,2.0,2.0,0.9*3B
$GPGSV,3,1,09,20,32,105,44,02,23,312,38,23,70,061,47,27,17,180,00*75
$GPGSV,3,2,09,17,05,225,32,25,49,142,45,13,74,234,44,04,54,280,43*76
$GPGSV,3,3,09,16,06,070,00*46
$GPGGA,115952,5000.0239,N,00904.9528,E,1,06,2.00,130.3,M,47.908,M,,*78
$GPRMC,115952,A,5000.0239,N,00904.9528,E,4.7042,75.238,130507,,*1E
$GPGSA,A,3,20,02,23,25,13,04,,,,,,,2.9,2.0,1.0*3A
$GPGGA,115953,5000.0242,N,00904.9546,E,1,06,2.00,129.8,M,47.908,M,,*7E
$GPRMC,115953,A,5000.0242,N,00904.9546,E,5.0133,74.342,130507,,*17
$GPGSA,A,3,20,02,23,25,13,04,,,,,,,2.9,2.0,1.0*3A
$GPGGA,115954,5000.0247,N,00904.9572,E,1,06,2.00,130.3,M,47.908,M,,*78
$GPRMC,115954,A,5000.0247,N,00904.9572,E,4.9296,76.279,130507,,*1D
$GPGSA,A,3,20,02,23,25,13,04,,,,,,,2.9,2.0,1.0*3A
$GPGGA,115955,5000.0250,N,00904.9590,E,1,06,2.00,129.8,M,47.908,M,,*70
$GPRMC,115955,A,5000.0250,N,00904.9590,E,4.8949,78.055,130507,,*1C
$GPGSA,A,3,20,02,23,25,13,04,,,,,,,2.9,2.0,1.0*3A
$GPGGA,115956,5000.0253,N,00904.9608,E,1,07,1.20,129.4,M,47.908,M,,*7E
$GPRMC,115956,A,5000.0253,N,00904.9608,E,4.8224,80.098,130507,,*18
$GPGSA,A,3,20,02,23,27,25,13,04,,,,,,2.9,1.2,1.0*3E
$GPGSV,3,1,09,20,32,105,42,02,23,312,40,23,70,061,47,27,17,180,39*76
$GPGSV,3,2,09,17,05,225,34,25,49,142,45,13,74,234,45,04,54,280,45*77
$GPGSV,3,3,09,16,06,070,00*46
$GPGGA,115957,5000.0255,N,00904.9634,E,1,07,1.20,129.1,M,47.908,M,,*73
$GPRMC,115957,A,5000.0255,N,00904.9634,E,5.0542,80.894,130507,,*1A
$GPGSA,A,3,20,02,23,27,25,13,04,,,,,,2.0,1.2,0.9*3F
$GPGGA,115958,5000.0258,N,00904.9652,E,1,07,1.20,128.6,M,47.908,M,,*77
$GPRMC,115958,A,5000.0258,N,00904.9652,E,4.7375,84.072,130507,,*18
$GPGSA,A,3,20,02,23,27,25,13,04,,,,,,2.0,1.2,0.9*3F
$GPGGA,115959,5000.0256,N,00904.9677,E,1,07,1.20,128.9,M,47.908,M,,*70
$GPRMC,115959,A,5000.0256,N,00904.9677,E,4.7375,84.072,130507,,*10
$GPGSA,A,3,20,02,23,27,25,13,04,,,,,,2.0,1.2,0.9*3F
$GPGGA,120000,5000.0259,N,00904.9695,E,1,07,1.20,128.5,M,47.908,M,,*7C
$GPRMC,120000,A,5000.0259,N,00904.9695,E,4.7239,85.957,130507,,*16
$GPGSA,A,3,20,02,23,27,25,13,04,,,,,,2.0,1.2,0.9*3F
$GPGGA,120001,5000.0257,N,00904.9719,E,1,07,1.20,128.8,M,47.908,M,,*7B
$GPRMC,120001,A,5000.0257,N,00904.9719,E,4.6762,88.170,130507,,*16
$GPGSA,A,3,20,02,23,27,25,13,04,,,,,,2.0,1.2,0.9*3F
$GPGSV,3,1,09,20,32,105,42,02,23,312,36,23,70,061,48,27,17,180,39*78
$GPGSV,3,2,09,17,05,225,14,25,49,142,45,13,74,234,45,04,54,280,46*76
$GPGSV,3,3,09,16,06,070,00*46
$GPGGA,120002,5000.0259,N,00904.9737,E,1,07,1.20,128.4,M,47.908,M,,*76
$GPRMC,120002,A,5000.0259,N,00904.9737,E,4.8804,92.585,130507,,*13
$GPGSA,A,3,20,02,23,27,25,13,04,,,,,,2.0,1.2,0.9*3F
$GPGGA,120003,5000.0262,N,00904.9763,E,1,07,1.20,128.0,M,47.908,M,,*7A
$GPRMC,120003,A,5000.0262,N,00904.9763,E,4.8804,92.585,130507,,*1B
$GPGSA,A,3,20,02,23,27,25,13,04,,,,,,2.0,1.2,0.9*3F
$GPGGA,120004,5000.0260,N,00904.9780,E,1,07,1.20,128.3,M,47.908,M,,*71
$GPRMC,120004,A,5000.0260,N,00904.9780,E,4.8899,94.413,130507,,*1F
$GPGSA,A,3,20,02,23,27,25,13,04,,,,,,2.0,1.2,0.9*3F
$GPGGA,120005,5000.0255,N,00904.9805,E,1,07,1.20,127.8,M,47.908,M,,*70
$GPRMC,120005,A,5000.0255,N,00904.9805,E,4.8824,100.623,130507,,*21
$GPGSA,A,3,20,02,23,27,25,13,04,,,,,,2.0,1.2,0.9*3F
$GPGGA,120006,5000.0254,N,00904.9821,E,1,07,1.20,128.0,M,47.908,M,,*73
$GPRMC,120006,A,5000.0254,N,00904.9821,E,4.6411,100.813,130507,,*2C
$GPGSA,A,3,20,02,23,27,25,13,04,,,,,,2.0,1.2,0.9*3F
$GPGSV,2,1,08,20,31,105,37,02,24,312,36,23,70,061,47,27,18,180,39*7E
$GPGSV,2,2,08,25,49,142,45,13,74,234,45,04,54,279,45,16,06,070,00*76
$GPGGA,120007,5000.0252,N,00904.9838,E,1,07,1.20,128.2,M,47.908,M,,*7E
$GPRMC,120007,A,5000.0252,N,00904.9838,E,4.6417,103.131,130507,,*2F
$GPGSA,A,3,20,02,23,27,25,13,04,,,,,,2.1,1.2,1.0*36
$GPGGA,120008,5000.0250,N,00904.9863,E,1,07,1.20,128.5,M,47.908,M,,*7A
$GPRMC,120008,A,5000.0250,N,00904.9863,E,4.6797,104.993,130507,,*20
$GPGSA,A,3,20,02,23,27,25,13,04,,,,,,2.1,1.2,1.0*36
$GPGGA,120009,5000.0241,N,00904.9878,E,1,07,1.20,128.6,M,47.908,M,,*72
$GPRMC,120009,A,5000.0241,N,00904.9878,E,4.7427,109.084,130507,,*20
$GPGSA,A,3,20,02,23,27,25,13,04,,,,,,2.1,1.2,1.0*36
$GPGGA,120010,5000.0240,N,00904.9894,E,1,07,1.20,128.8,M,47.908,M,,*77
$GPRMC,120010,A,5000.0240,N,00904.9894,E,4.6797,104.993,130507,,*20
$GPGSA,A,3,20,02,23,27,25,13,04,,,,,,2.1,1.2,1.0*36
$GPGGA,120011,5000.0234,N,00904.9918,E,1,07,1.20,129.7,M,47.908,M,,*7E
$GPRMC,120011,A,5000.0234,N,00904.9918,E,4.7427,109.084,130507,,*2C
