GPSD,R=1
$GPGSA,A,3,14,20,03,28,19,11,22,01,,,,,1.91,0.92,1.68*08
$GPRMC,160955.000,A,4819.443612,N,01620.477151,E,53.583,155.32,261207,,,A*6E
$GPVTG,155.32,T,,M,53.583,N,99.289,K,A*36
$GPGGA,160956.000,4819.430238,N,01620.486506,E,1,8,0.92,168.465,M,43.457,M,,*5D
$GPGSA,A,3,14,20,03,28,19,11,22,01,,,,,1.91,0.92,1.68*08
$GPRMC,160956.000,A,4819.430238,N,01620.486506,E,52.579,155.28,261207,,,A*62
$GPVTG,155.28,T,,M,52.579,N,97.430,K,A*33
$GPGGA,160957.000,4819.417098,N,01620.495465,E,1,8,0.92,168.484,M,43.456,M,,*59
$GPGSA,A,3,14,20,03,28,19,11,22,01,,,,,1.91,0.92,1.68*08
$GPRMC,160957.000,A,4819.417098,N,01620.495465,E,51.225,155.33,261207,,,A*6F
$GPVTG,155.33,T,,M,51.225,N,94.920,K,A*3B
$GPGGA,160958.000,4819.404366,N,01620.504492,E,1,8,0.92,168.599,M,43.456,M,,*5A
$GPGSA,A,3,14,20,03,28,19,11,22,01,,,,,1.91,0.92,1.68*08
$GPRMC,160958.000,A,4819.404366,N,01620.504492,E,50.366,154.84,261207,,,A*6B
$GPVTG,154.84,T,,M,50.366,N,93.328,K,A*34
$GPGGA,160959.000,4819.391582,N,01620.513688,E,1,8,0.92,168.616,M,43.456,M,,*57
$GPGSA,A,3,14,20,03,28,19,11,22,01,,,,,1.91,0.92,1.68*08
$GPGSV,3,1,10,11,55,291,43,01,51,122,37,19,47,182,41,14,45,071,43*77
$GPGSV,3,2,10,20,24,242,40,22,22,060,35,03,17,170,32,28,16,300,41*74
$GPGSV,3,3,10,17,04,324,37,09,03,018,34*7F
$GPRMC,160959.000,A,4819.391582,N,01620.513688,E,51.484,154.36,261207,,,A*61
$GPVTG,154.36,T,,M,51.484,N,95.399,K,A*3B
$GPGGA,161000.000,4819.378486,N,01620.522891,E,1,8,0.92,169.294,M,43.456,M,,*5A
$GPGSA,A,3,14,20,03,28,19,11,22,01,,,,,1.91,0.92,1.68*08
$GPRMC,161000.000,A,4819.378486,N,01620.522891,E,52.174,154.91,261207,,,A*67
$GPVTG,154.91,T,,M,52.174,N,96.679,K,A*37
$GPGGA,161001.000,4819.365459,N,01620.531996,E,1,8,0.92,169.805,M,43.456,M,,*53
$GPGSA,A,3,14,20,03,28,19,11,22,01,,,,,1.91,0.92,1.68*08
$GPRMC,161001.000,A,4819.365459,N,01620.531996,E,52.654,155.39,261207,,,A*6A
$GPVTG,155.39,T,,M,52.654,N,97.567,K,A*3C
$GPGGA,161002.000,4819.352208,N,01620.540867,E,1,8,0.92,169.782,M,43.455,M,,*5C
$GPGSA,A,3,14,20,03,28,19,11,22,01,,,,,1.91,0.92,1.68*08
$GPRMC,161002.000,A,4819.352208,N,01620.540867,E,53.296,156.37,261207,,,A*60
$GPVTG,156.37,T,,M,53.296,N,98.758,K,A*3B
$GPGGA,161003.000,4819.338532,N,01620.549561,E,1,8,0.91,170.041,M,43.455,M,,*5E
$GPGSA,A,3,14,20,03,28,19,11,22,01,,,,,1.91,0.91,1.68*0B
$GPRMC,161003.000,A,4819.338532,N,01620.549561,E,54.559,157.48,261207,,,A*6B
$GPVTG,157.48,T,,M,54.559,N,101.098,K,A*0B
$GPGGA,161004.000,4819.324473,N,01620.558019,E,1,8,0.92,170.160,M,43.455,M,,*5B
$GPGSA,A,3,14,20,03,28,19,11,22,01,,,,,1.91,0.92,1.68*08
$GPGSV,3,1,10,11,55,291,43,01,51,122,36,19,47,182,40,14,45,071,40*74
$GPGSV,3,2,10,20,24,242,41,22,22,060,27,03,17,170,25,28,16,300,39*7F
$GPGSV,3,3,10,17,04,324,33,09,03,018,30*7F
$GPRMC,161004.000,A,4819.324473,N,01620.558019,E,55.220,158.16,261207,,,A*63
$GPVTG,158.16,T,,M,55.220,N,102.322,K,A*06
$GPGGA,161005.000,4819.309904,N,01620.566588,E,1,8,0.92,170.855,M,43.455,M,,*57
$GPGSA,A,3,14,20,03,28,19,11,22,01,,,,,1.91,0.92,1.68*08
$GPRMC,161005.000,A,4819.309904,N,01620.566588,E,56.030,158.65,261207,,,A*64
$GPVTG,158.65,T,,M,56.030,N,103.823,K,A*09
$GPGGA,161006.000,4819.295158,N,01620.574992,E,1,8,0.92,171.278,M,43.454,M,,*50
$GPGSA,A,3,14,20,03,28,19,11,22,01,,,,,1.91,0.92,1.68*08
$GPRMC,161006.000,A,4819.295158,N,01620.574992,E,56.882,159.45,261207,,,A*64
$GPVTG,159.45,T,,M,56.882,N,105.402,K,A*02
$GPGGA,161007.000,4819.280377,N,01620.583434,E,1,8,0.92,171.454,M,43.454,M,,*5B
$GPGSA,A,3,14,20,03,28,19,11,22,01,,,,,1.91,0.92,1.68*08
$GPRMC,161007.000,A,4819.280377,N,01620.583434,E,57.530,159.55,261207,,,A*63
$GPVTG,159.55,T,,M,57.530,N,106.603,K,A*06
$GPGGA,161008.000,4819.265123,N,01620.592056,E,1,8,0.92,171.839,M,43.454,M,,*5B
$GPGSA,A,3,14,20,03,28,19,11,22,01,,,,,1.91,0.92,1.68*08
$GPRMC,161008.000,A,4819.265123,N,01620.592056,E,58.377,159.95,261207,,,A*62
$GPVTG,159.95,T,,M,58.377,N,108.172,K,A*0F
$GPGGA,161009.000,4819.249704,N,01620.600281,E,1,8,0.92,172.182,M,43.454,M,,*5D
$GPGSA,A,3,14,20,03,28,19,11,22,01,,,,,1.91,0.92,1.68*08
$GPGSV,3,1,10,11,55,291,43,01,51,122,38,19,47,182,39,14,45,071,39*7A
$GPGSV,3,2,10,20,24,242,38,22,22,060,35,03,17,170,26,28,16,299,41*7F
$GPGSV,3,3,10,17,04,324,36,09,03,018,30*7A
$GPRMC,161009.000,A,4819.249704,N,01620.600281,E,58.986,160.62,261207,,,A*68
$GPVTG,160.62,T,,M,58.986,N,109.301,K,A*0E
$GPGGA,161010.000,4819.233950,N,01620.608523,E,1,8,0.91,171.989,M,43.454,M,,*53
$GPGSA,A,3,14,20,03,28,19,11,22,01,,,,,1.91,0.91,1.68*0B
$GPRMC,161010.000,A,4819.233950,N,01620.608523,E,59.751,161.02,261207,,,A*67
$GPVTG,161.02,T,,M,59.751,N,110.719,K,A*09
$GPGGA,161011.000,4819.217928,N,01620.616508,E,1,8,0.92,171.756,M,43.453,M,,*55
$GPGSA,A,3,14,20,03,28,19,11,22,01,,,,,1.91,0.92,1.68*08
$GPRMC,161011.000,A,4819.217928,N,01620.616508,E,60.564,161.66,261207,,,A*65
$GPVTG,161.66,T,,M,60.564,N,112.225,K,A*0D
$GPGGA,161012.000,4819.201989,N,01620.624476,E,1,8,0.92,172.190,M,43.453,M,,*5C
$GPGSA,A,3,14,20,03,28,19,11,22,01,,,,,1.91,0.92,1.67*07
$GPRMC,161012.000,A,4819.201989,N,01620.624476,E,61.179,161.95,261207,,,A*66
$GPVTG,161.95,T,,M,61.179,N,113.365,K,A*0C
$GPGGA,161013.000,4819.185661,N,01620.632525,E,1,8,0.92,172.312,M,43.453,M,,*53
$GPGSA,A,3,14,20,03,28,19,11,22,01,,,,,1.91,0.92,1.67*07
$GPRMC,161013.000,A,4819.185661,N,01620.632525,E,61.927,161.97,261207,,,A*60
$GPVTG,161.97,T,,M,61.927,N,114.751,K,A*09
$GPGGA,161014.000,4819.168944,N,01620.640053,E,1,8,0.92,172.632,M,43.453,M,,*59
$GPGSA,A,3,14,20,03,28,19,11,22,01,,,,,1.91,0.92,1.67*07
$GPGSV,3,1,10,11,55,291,43,01,51,121,37,19,47,182,39,14,45,071,41*79
$GPGSV,3,2,10,20,24,242,32,22,22,060,36,03,17,170,36,28,16,299,33*72
$GPGSV,3,3,10,17,04,324,33,09,03,018,26*78
$GPRMC,161014.000,A,4819.168944,N,01620.640053,E,62.659,162.65,261207,,,A*66
$GPVTG,162.65,T,,M,62.659,N,116.108,K,A*0A
$GPGGA,161015.000,4819.152046,N,01620.647785,E,1,8,0.92,172.908,M,43.452,M,,*56
$GPGSA,A,3,14,20,03,28,19,11,22,01,,,,,1.91,0.92,1.67*07
$GPRMC,161015.000,A,4819.152046,N,01620.647785,E,63.254,163.18,261207,,,A*6D
$GPVTG,163.18,T,,M,63.254,N,117.209,K,A*0A
$GPGGA,161016.000,4819.135131,N,01620.655055,E,1,8,0.92,172.700,M,43.452,M,,*5A
$GPGSA,A,3,14,20,03,28,19,11,22,01,,,,,1.91,0.92,1.67*07
$GPRMC,161016.000,A,4819.135131,N,01620.655055,E,63.607,163.79,261207,,,A*62
$GPVTG,163.79,T,,M,63.607,N,117.863,K,A*09
$GPGGA,161017.000,4819.118003,N,01620.662082,E,1,8,0.92,172.740,M,43.452,M,,*5E
$GPGSA,A,3,14,20,03,28,19,11,22,01,,,,,1.91,0.92,1.67*07
$GPRMC,161017.000,A,4819.118003,N,01620.662082,E,63.934,164.23,261207,,,A*65
$GPVTG,164.23,T,,M,63.934,N,118.470,K,A*0F
$GPGGA,161018.000,4819.101125,N,01620.669227,E,1,8,0.91,172.807,M,43.452,M,,*55
$GPGSA,A,3,14,20,03,28,19,11,22,01,,,,,1.91,0.91,1.67*04
$GPRMC,161018.000,A,4819.101125,N,01620.669227,E,64.346,164.74,261207,,,A*6B
$GPVTG,164.74,T,,M,64.346,N,119.232,K,A*04
$GPGGA,161019.000,4819.083780,N,01620.676050,E,1,8,0.91,172.826,M,43.451,M,,*5A
$GPGSA,A,3,14,20,03,28,19,11,22,01,,,,,1.91,0.91,1.67*04
$GPGSV,3,1,10,11,55,291,44,01,51,121,38,19,47,182,40,14,45,071,42*7C
$GPGSV,3,2,10,20,24,242,34,22,22,060,40,03,17,170,38,28,16,299,41*7E
$GPGSV,3,3,10,17,04,324,32,09,03,018,30*7E
$GPRMC,161019.000,A,4819.083780,N,01620.676050,E,64.830,165.38,261207,,,A*67
$GPVTG,165.38,T,,M,64.830,N,120.131,K,A*0D
$GPGGA,161020.000,4819.066514,N,01620.682964,E,1,8,0.91,172.680,M,43.451,M,,*53
$GPGSA,A,3,14,20,03,28,19,11,22,01,,,,,1.91,0.91,1.67*04
$GPRMC,161020.000,A,4819.066514,N,01620.682964,E,64.959,166.39,261207,,,A*60
$GPVTG,166.39,T,,M,64.959,N,120.369,K,A*0E
$GPGGA,161021.000,4819.049034,N,01620.688983,E,1,8,0.92,172.582,M,43.451,M,,*59
$GPGSA,A,3,14,20,03,28,19,11,22,01,,,,,1.91,0.92,1.67*07
$GPRMC,161021.000,A,4819.049034,N,01620.688983,E,65.001,167.57,261207,,,A*64
$GPVTG,167.57,T,,M,65.001,N,120.447,K,A*09
$GPGGA,161022.000,4819.031376,N,01620.694171,E,1,8,0.92,172.263,M,43.451,M,,*50
$GPGSA,A,3,14,20,03,28,19,11,22,01,,,,,1.91,0.92,1.67*07
$GPRMC,161022.000,A,4819.031376,N,01620.694171,E,64.963,169.27,261207,,,A*60
$GPVTG,169.27,T,,M,64.963,N,120.376,K,A*09
$GPGGA,161023.000,4819.013807,N,01620.698976,E,1,8,0.91,172.274,M,43.451,M,,*5A
$GPGSA,A,3,14,20,03,28,19,11,22,01,,,,,1.91,0.91,1.67*04
$GPRMC,161023.000,A,4819.013807,N,01620.698976,E,64.997,170.76,261207,,,A*68
$GPVTG,170.76,T,,M,64.997,N,120.440,K,A*0C
$GPGGA,161024.000,4818.996115,N,01620.703066,E,1,8,0.92,171.787,M,43.450,M,,*51
$GPGSA,A,3,14,20,03,28,19,11,22,01,,,,,1.91,0.92,1.67*07
$GPGSV,3,1,10,11,56,291,44,01,51,121,39,19,47,182,41,14,45,071,42*7F
$GPGSV,3,2,10,20,24,242,25,22,22,060,40,03,17,170,37,28,16,299,24*72
$GPGSV,3,3,10,17,04,324,18,09,03,017,35*7C
$GPRMC,161024.000,A,4818.996115,N,01620.703066,E,65.123,171.90,261207,,,A*64
$GPVTG,171.90,T,,M,65.123,N,120.672,K,A*00
$GPGGA,161025.000,4818.978203,N,01620.706791,E,1,8,0.92,171.647,M,43.450,M,,*53
$GPGSA,A,3,14,20,03,28,19,11,22,01,,,,,1.91,0.92,1.67*07
$GPRMC,161025.000,A,4818.978203,N,01620.706791,E,65.212,172.10,261207,,,A*61
$GPVTG,172.10,T,,M,65.212,N,120.837,K,A*05
$GPGGA,161026.000,4818.960288,N,01620.710423,E,1,8,0.91,171.898,M,43.450,M,,*58
$GPGSA,A,3,14,20,03,28,19,11,22,01,,,,,1.90,0.91,1.67*05
$GPRMC,161026.000,A,4818.960288,N,01620.710423,E,64.984,172.87,261207,,,A*6E
$GPVTG,172.87,T,,M,64.984,N,120.415,K,A*02
$GPGGA,161027.000,4818.942520,N,01620.713561,E,1,7,1.11,171.590,M,43.450,M,,*5B
$GPGSA,A,3,14,20,03,19,11,22,01,,,,,,2.22,1.11,1.92*06
$GPRMC,161027.000,A,4818.942520,N,01620.713561,E,64.974,173.52,261207,,,A*68
$GPVTG,173.52,T,,M,64.974,N,120.398,K,A*06
$GPGGA,161028.000,4818.924629,N,01620.716098,E,1,7,1.09,171.575,M,43.450,M,,*5A
$GPGSA,A,3,14,20,03,19,11,22,01,,,,,,1.41,1.09,0.89*02
$GPRMC,161028.000,A,4818.924629,N,01620.716098,E,64.816,174.74,261207,,,A*6D
$GPVTG,174.74,T,,M,64.816,N,120.104,K,A*07
$GPGGA,161029.000,4818.906568,N,01620.717973,E,1,7,1.11,171.390,M,43.450,M,,*54
$GPGSA,A,3,14,20,03,19,11,22,01,,,,,,2.21,1.11,1.91*06
$GPGSV,3,1,10,11,56,291,45,01,51,121,39,19,47,182,41,14,45,071,42*7E
$GPGSV,3,2,10,20,24,242,20,22,22,060,39,03,17,170,31,28,16,299,22*79
$GPGSV,3,3,10,17,04,324,16,09,03,017,23*75
$GPRMC,161029.000,A,4818.906568,N,01620.717973,E,65.340,176.20,261207,,,A*6D
$GPVTG,176.20,T,,M,65.340,N,121.075,K,A*0B
$GPGGA,161030.000,4818.888582,N,01620.719149,E,1,7,1.11,170.929,M,43.449,M,,*51
$GPGSA,A,3,14,20,03,19,11,22,01,,,,,,2.21,1.11,1.91*06
$GPRMC,161030.000,A,4818.888582,N,01620.719149,E,65.548,177.62,261207,,,A*60
$GPVTG,177.62,T,,M,65.548,N,121.460,K,A*02
$GPGGA,161031.000,4818.870320,N,01620.719943,E,1,7,1.11,170.899,M,43.449,M,,*51
$GPGSA,A,3,14,20,03,19,11,22,01,,,,,,2.21,1.11,1.91*06
$GPRMC,161031.000,A,4818.870320,N,01620.719943,E,66.039,178.50,261207,,,A*64
$GPVTG,178.50,T,,M,66.039,N,122.371,K,A*08
$GPGGA,161032.000,4818.851835,N,01620.720382,E,1,7,1.11,171.052,M,43.449,M,,*5D
$GPGSA,A,3,14,20,03,19,11,22,01,,,,,,2.21,1.11,1.91*06
$GPRMC,161032.000,A,4818.851835,N,01620.720382,E,65.984,179.50,261207,,,A*6B
$GPVTG,179.50,T,,M,65.984,N,122.269,K,A*0D
$GPGGA,161033.000,4818.833434,N,01620.720345,E,1,8,0.91,169.999,M,43.449,M,,*5F
$GPGSA,A,3,14,20,03,28,19,11,22,01,,,,,1.90,0.91,1.67*05
$GPRMC,161033.000,A,4818.833434,N,01620.720345,E,66.440,180.54,261207,,,A*6C
$GPVTG,180.54,T,,M,66.440,N,123.112,K,A*07
$GPGGA,161034.000,4818.815087,N,01620.719819,E,1,8,0.91,168.831,M,43.449,M,,*5A
$GPGSA,A,3,14,20,03,28,19,11,22,01,,,,,1.90,0.91,1.67*05
$GPGSV,3,1,10,11,56,291,45,01,51,121,42,19,47,181,39,14,45,071,42*7E
$GPGSV,3,2,10,20,24,242,23,22,22,060,36,03,17,170,31,28,16,299,28*7F
$GPGSV,3,3,10,17,04,324,,09,03,017,23*72
$GPRMC,161034.000,A,4818.815087,N,01620.719819,E,66.319,181.39,261207,,,A*6A
$GPVTG,181.39,T,,M,66.319,N,122.888,K,A*0D
$GPGGA,161035.000,4818.796637,N,01620.718662,E,1,8,0.91,167.916,M,43.449,M,,*5A
$GPGSA,A,3,14,20,03,28,19,11,22,01,,,,,1.90,0.91,1.67*05
$GPRMC,161035.000,A,4818.796637,N,01620.718662,E,65.648,182.15,261207,,,A*6E
$GPVTG,182.15,T,,M,65.648,N,121.646,K,A*0D
$GPGGA,161036.000,4818.778321,N,01620.717478,E,1,8,0.91,167.889,M,43.449,M,,*5A
$GPGSA,A,3,14,20,03,28,19,11,22,01,,,,,1.90,0.91,1.67*05
$GPRMC,161036.000,A,4818.778321,N,01620.717478,E,65.345,182.89,261207,,,A*64
$GPVTG,182.89,T,,M,65.345,N,121.084,K,A*08
$GPGGA,161037.000,4818.760313,N,01620.715637,E,1,8,0.91,167.614,M,43.449,M,,*52
$GPGSA,A,3,14,20,03,28,19,11,22,01,,,,,1.90,0.91,1.67*05
$GPRMC,161037.000,A,4818.760313,N,01620.715637,E,65.442,183.68,261207,,,A*68
$GPVTG,183.68,T,,M,65.442,N,121.265,K,A*0B
$GPGGA,161038.000,4818.742270,N,01620.713566,E,1,8,0.91,166.377,M,43.449,M,,*59
$GPGSA,A,3,14,20,03,28,19,11,22,01,,,,,1.90,0.91,1.67*05
$GPRMC,161038.000,A,4818.742270,N,01620.713566,E,65.714,184.04,261207,,,A*6F
$GPVTG,184.04,T,,M,65.714,N,121.768,K,A*0E
$GPGGA,161039.000,4818.724112,N,01620.711709,E,1,8,0.91,167.556,M,43.448,M,,*53
$GPGSA,A,3,14,20,03,28,19,11,22,01,,,,,1.90,0.91,1.67*05
$GPGSV,3,1,10,11,56,291,45,01,51,121,43,19,47,181,38,14,45,071,43*7F
$GPGSV,3,2,10,20,24,242,28,22,22,060,42,03,17,170,35,28,16,299,30*7A
$GPGSV,3,3,10,17,04,324,,09,03,017,29*78
$GPRMC,161039.000,A,4818.724112,N,01620.711709,E,66.065,184.27,261207,,,A*63
$GPVTG,184.27,T,,M,66.065,N,122.419,K,A*0B
$GPGGA,161040.000,4818.705565,N,01620.709692,E,1,8,0.91,167.999,M,43.448,M,,*5F
$GPGSA,A,3,14,20,03,28,19,11,22,01,,,,,1.90,0.91,1.67*05
$GPRMC,161040.000,A,4818.705565,N,01620.709692,E,66.536,184.35,261207,,,A*60
$GPVTG,184.35,T,,M,66.536,N,123.291,K,A*0C
$GPGGA,161041.000,4818.686947,N,01620.707805,E,1,8,0.91,168.683,M,43.448,M,,*5D
$GPGSA,A,3,14,20,03,28,19,11,22,01,,,,,1.90,0.91,1.67*05
$GPRMC,161041.000,A,4818.686947,N,01620.707805,E,65.669,184.39,261207,,,A*6F
$GPVTG,184.39,T,,M,65.669,N,121.685,K,A*09
$GPGGA,161042.000,4818.668892,N,01620.706059,E,1,8,0.91,168.486,M,43.448,M,,*50
$GPGSA,A,3,14,20,03,28,19,11,22,01,,,,,1.90,0.91,1.67*05
$GPRMC,161042.000,A,4818.668892,N,01620.706059,E,64.706,184.58,261207,,,A*6B
$GPVTG,184.58,T,,M,64.706,N,119.900,K,A*0E
$GPGGA,161043.000,4818.651092,N,01620.703882,E,1,8,0.91,168.246,M,43.448,M,,*52
$GPGSA,A,3,14,20,03,28,19,11,22,01,,,,,1.90,0.91,1.67*05
$GPRMC,161043.000,A,4818.651092,N,01620.703882,E,63.635,184.70,261207,,,A*6F
$GPVTG,184.70,T,,M,63.635,N,117.916,K,A*0B
$GPGGA,161044.000,4818.633436,N,01620.702072,E,1,8,0.91,168.613,M,43.448,M,,*59
$GPGSA,A,3,14,20,03,28,19,11,22,01,,,,,1.90,0.91,1.67*05
$GPGSV,3,1,10,11,56,291,46,01,51,121,44,19,47,181,38,14,45,071,44*7C
$GPGSV,3,2,10,20,24,242,33,22,22,060,45,03,17,170,35,28,16,299,37*70
$GPGSV,3,3,10,17,04,324,,09,03,017,38*78
$GPRMC,161044.000,A,4818.633436,N,01620.702072,E,62.432,184.25,261207,,,A*64
$GPVTG,184.25,T,,M,62.432,N,115.687,K,A*0A
$GPGGA,161045.000,4818.616218,N,01620.700157,E,1,8,0.91,168.768,M,43.448,M,,*5C
$GPGSA,A,3,14,20,03,28,19,11,22,01,,,,,1.90,0.91,1.67*05
$GPRMC,161045.000,A,4818.616218,N,01620.700157,E,61.299,184.14,261207,,,A*6A
$GPVTG,184.14,T,,M,61.299,N,113.586,K,A*08
$GPGGA,161046.000,4818.599338,N,01620.698157,E,1,8,0.91,168.228,M,43.448,M,,*59
$GPGSA,A,3,14,20,03,28,19,11,22,01,,,,,1.90,0.91,1.66*04
$GPRMC,161046.000,A,4818.599338,N,01620.698157,E,60.213,183.89,261207,,,A*6E
$GPVTG,183.89,T,,M,60.213,N,111.575,K,A*06
$GPGGA,161047.000,4818.582954,N,01620.696650,E,1,8,0.91,168.411,M,43.448,M,,*50
$GPGSA,A,3,14,20,03,28,19,11,22,01,,,,,1.90,0.91,1.66*04
$GPRMC,161047.000,A,4818.582954,N,01620.696650,E,59.027,183.49,261207,,,A*68
$GPVTG,183.49,T,,M,59.027,N,109.377,K,A*08
$GPGGA,161048.000,4818.566647,N,01620.695127,E,1,8,0.91,168.358,M,43.448,M,,*56
$GPGSA,A,3,14,20,03,28,19,11,22,01,,,,,1.90,0.91,1.66*04
$GPRMC,161048.000,A,4818.566647,N,01620.695127,E,57.857,183.25,261207,,,A*6F
$GPVTG,183.25,T,,M,57.857,N,107.209,K,A*05
$GPGGA,161049.000,4818.550721,N,01620.694075,E,1,8,0.91,168.764,M,43.448,M,,*5F
$GPGSA,A,3,14,20,03,28,19,11,22,01,,,,,1.90,0.91,1.66*04
$GPGSV,3,1,10,11,56,291,46,01,51,121,43,19,47,181,40,14,45,071,45*75
$GPGSV,3,2,10,20,24,242,35,22,22,060,42,03,17,170,35,28,16,299,39*7F
$GPGSV,3,3,10,17,04,324,29,09,03,017,39*72
$GPRMC,161049.000,A,4818.550721,N,01620.694075,E,56.651,182.16,261207,,,A*65
$GPVTG,182.16,T,,M,56.651,N,104.975,K,A*0E
$GPGGA,161050.000,4818.535096,N,01620.693461,E,1,8,0.91,168.533,M,43.447,M,,*56
$GPGSA,A,3,14,20,03,28,19,11,22,01,,,,,1.90,0.91,1.66*04
$GPRMC,161050.000,A,4818.535096,N,01620.693461,E,55.517,181.30,261207,,,A*66
$GPVTG,181.30,T,,M,55.517,N,102.873,K,A*0A
$GPGGA,161051.000,4818.519699,N,01620.693068,E,1,8,0.91,168.340,M,43.447,M,,*5F
$GPGSA,A,3,14,20,03,28,19,11,22,01,,,,,1.90,0.91,1.66*04
$GPRMC,161051.000,A,4818.519699,N,01620.693068,E,54.926,180.60,261207,,,A*66
$GPVTG,180.60,T,,M,54.926,N,101.777,K,A*09
$GPGGA,161052.000,4818.504543,N,01620.692848,E,1,8,0.91,168.765,M,43.447,M,,*5C
$GPGSA,A,3,14,20,03,28,19,11,22,01,,,,,1.90,0.91,1.66*04
$GPRMC,161052.000,A,4818.504543,N,01620.692848,E,54.424,179.83,261207,,,A*62
$GPVTG,179.83,T,,M,54.424,N,100.848,K,A*0F
$GPGGA,161053.000,4818.489539,N,01620.693145,E,1,7,1.18,168.807,M,43.447,M,,*55
$GPGSA,A,3,14,20,28,19,11,22,01,,,,,,2.44,1.18,2.14*0B
$GPRMC,161053.000,A,4818.489539,N,01620.693145,E,54.002,178.97,261207,,,A*6B
$GPVTG,178.97,T,,M,54.002,N,100.065,K,A*0C
$GPGGA,161054.000,4818.474603,N,01620.693918,E,1,8,0.91,168.877,M,43.447,M,,*52
$GPGSA,A,3,14,20,03,28,19,11,22,01,,,,,1.90,0.91,1.66*04
$GPGSV,3,1,10,11,56,291,46,01,51,121,43,19,47,181,39,14,45,071,44*7A
$GPGSV,3,2,10,20,24,242,32,22,22,060,39,03,17,170,24,28,16,299,35*78
$GPGSV,3,3,10,17,04,324,26,09,03,017,32*76
$GPRMC,161054.000,A,4818.474603,N,01620.693918,E,53.884,177.92,261207,,,A*6F
$GPVTG,177.92,T,,M,53.884,N,99.847,K,A*3E
$GPGGA,161055.000,4818.459687,N,01620.695095,E,1,8,0.91,168.262,M,43.447,M,,*54
$GPGSA,A,3,14,20,03,28,19,11,22,01,,,,,1.90,0.91,1.66*04
$GPRMC,161055.000,A,4818.459687,N,01620.695095,E,54.597,175.82,261207,,,A*6C
$GPVTG,175.82,T,,M,54.597,N,101.169,K,A*00
$GPGGA,161056.000,4818.444558,N,01620.697053,E,1,8,0.91,168.267,M,43.447,M,,*57
$GPGSA,A,3,14,20,03,28,19,11,22,01,,,,,1.90,0.91,1.66*04
$GPRMC,161056.000,A,4818.444558,N,01620.697053,E,54.843,174.22,261207,,,A*65
$GPVTG,174.22,T,,M,54.843,N,101.625,K,A*00
$GPGGA,161057.000,4818.429345,N,01620.699638,E,1,8,0.91,167.958,M,43.447,M,,*5A
$GPGSA,A,3,14,20,03,28,19,11,22,01,,,,,1.90,0.91,1.66*04
$GPRMC,161057.000,A,4818.429345,N,01620.699638,E,56.078,173.44,261207,,,A*65
$GPVTG,173.44,T,,M,56.078,N,103.912,K,A*0C
$GPGGA,161058.000,4818.413713,N,01620.702309,E,1,8,0.91,167.770,M,43.446,M,,*5A
$GPGSA,A,3,14,20,03,28,19,11,22,01,,,,,1.90,0.91,1.66*04
$GPRMC,161058.000,A,4818.413713,N,01620.702309,E,56.462,173.44,261207,,,A*6F
$GPVTG,173.44,T,,M,56.462,N,104.624,K,A*0E
$GPGGA,161059.000,4818.397975,N,01620.704817,E,1,8,0.91,168.164,M,43.446,M,,*50
$GPGSA,A,3,14,20,03,28,19,11,22,01,,,,,1.90,0.91,1.66*04
$GPGSV,3,1,10,11,56,291,46,01,51,121,43,19,47,181,39,14,45,071,44*7A
$GPGSV,3,2,10,20,24,242,26,22,22,060,41,03,17,170,31,28,16,299,25*77
$GPGSV,3,3,10,17,04,324,28,09,03,017,31*7B
$GPRMC,161059.000,A,4818.397975,N,01620.704817,E,56.783,173.11,261207,,,A*65
$GPVTG,173.11,T,,M,56.783,N,105.219,K,A*09
$GPGGA,161100.000,4818.382424,N,01620.707899,E,1,7,1.11,167.865,M,43.446,M,,*54
$GPGSA,A,3,14,20,03,19,11,22,01,,,,,,2.21,1.11,1.91*06
$GPRMC,161100.000,A,4818.382424,N,01620.707899,E,57.261,172.32,261207,,,A*68
$GPVTG,172.32,T,,M,57.261,N,106.105,K,A*0C
$GPGGA,161101.000,4818.366772,N,01620.711223,E,1,7,1.11,167.964,M,43.446,M,,*53
$GPGSA,A,3,14,20,03,19,11,22,01,,,,,,2.21,1.11,1.91*06
$GPRMC,161101.000,A,4818.366772,N,01620.711223,E,57.263,170.97,261207,,,A*60
$GPVTG,170.97,T,,M,57.263,N,106.109,K,A*0F
$GPGGA,161102.000,4818.351208,N,01620.715178,E,1,8,0.91,167.817,M,43.446,M,,*56
$GPGSA,A,3,14,20,03,28,19,11,22,01,,,,,1.90,0.91,1.66*04
$GPRMC,161102.000,A,4818.351208,N,01620.715178,E,56.929,169.59,261207,,,A*68
$GPVTG,169.59,T,,M,56.929,N,105.490,K,A*07
$GPGGA,161103.000,4818.335812,N,01620.719661,E,1,7,1.11,167.243,M,43.446,M,,*5A
$GPGSA,A,3,14,20,03,19,11,22,01,,,,,,2.21,1.11,1.91*06
$GPRMC,161103.000,A,4818.335812,N,01620.719661,E,56.828,168.51,261207,,,A*60
$GPVTG,168.51,T,,M,56.828,N,105.302,K,A*02
$GPGGA,161104.000,4818.320367,N,01620.724748,E,1,8,0.91,167.795,M,43.446,M,,*5C
$GPGSA,A,3,14,20,03,28,19,11,22,01,,,,,1.89,0.91,1.66*0C
$GPGSV,3,1,10,11,56,291,46,01,51,121,43,19,47,181,40,14,45,071,44*74
$GPGSV,3,2,10,20,24,243,32,22,22,060,42,03,17,170,34,28,16,299,22*72
$GPGSV,3,3,10,17,04,324,35,09,03,017,26*71
$GPRMC,161104.000,A,4818.320367,N,01620.724748,E,57.217,167.46,261207,,,A*60
$GPVTG,167.46,T,,M,57.217,N,106.022,K,A*0E
$GPGGA,161105.000,4818.304843,N,01620.730036,E,1,8,0.91,168.042,M,43.445,M,,*5C
$GPGSA,A,3,14,20,03,28,19,11,22,01,,,,,1.89,0.91,1.66*0C
$GPRMC,161105.000,A,4818.304843,N,01620.730036,E,57.768,166.57,261207,,,A*6D
$GPVTG,166.57,T,,M,57.768,N,107.045,K,A*02
$GPGGA,161106.000,4818.289064,N,01620.736155,E,1,8,0.91,167.892,M,43.445,M,,*5E
$GPGSA,A,3,14,20,03,28,19,11,22,01,,,,,1.89,0.91,1.66*0C
$GPRMC,161106.000,A,4818.289064,N,01620.736155,E,58.014,165.47,261207,,,A*64
$GPVTG,165.47,T,,M,58.014,N,107.500,K,A*07
$GPGGA,161107.000,4818.273492,N,01620.742817,E,1,8,0.91,168.351,M,43.445,M,,*50
$GPGSA,A,3,14,20,03,28,19,11,22,01,,,,,1.89,0.91,1.66*0C
$GPRMC,161107.000,A,4818.273492,N,01620.742817,E,58.134,163.98,261207,,,A*66
$GPVTG,163.98,T,,M,58.134,N,107.723,K,A*03
$GPGGA,161108.000,4818.258138,N,01620.749586,E,1,8,0.91,168.276,M,43.445,M,,*59
$GPGSA,A,3,14,20,03,28,19,11,22,01,,,,,1.89,0.91,1.66*0C
$GPRMC,161108.000,A,4818.258138,N,01620.749586,E,58.329,162.64,261207,,,A*67
$GPVTG,162.64,T,,M,58.329,N,108.084,K,A*0A
$GPGGA,161109.000,4818.242680,N,01620.757378,E,1,8,0.91,168.125,M,43.444,M,,*5B
$GPGSA,A,3,14,20,03,28,19,11,22,01,,,,,1.89,0.91,1.66*0C
$GPGSV,3,1,10,11,56,291,45,01,51,121,43,19,47,181,41,14,45,071,44*76
$GPGSV,3,2,10,20,24,243,36,22,22,060,42,03,17,170,33,28,16,299,39*7B
$GPGSV,3,3,10,17,04,324,37,09,03,017,28*7D
$GPRMC,161109.000,A,4818.242680,N,01620.757378,E,58.346,161.60,261207,,,A*6F
$GPVTG,161.60,T,,M,58.346,N,108.116,K,A*0E
$GPGGA,161110.000,4818.227374,N,01620.765120,E,1,8,0.91,167.596,M,43.444,M,,*53
$GPGSA,A,3,14,20,03,28,19,11,22,01,,,,,1.89,0.91,1.66*0C
$GPRMC,161110.000,A,4818.227374,N,01620.765120,E,58.251,161.00,261207,,,A*65
$GPVTG,161.00,T,,M,58.251,N,107.940,K,A*0B
$GPGGA,161111.000,4818.212270,N,01620.773359,E,1,8,0.91,167.492,M,43.444,M,,*5F
$GPGSA,A,3,14,20,03,28,19,11,22,01,,,,,1.89,0.91,1.66*0C
$GPRMC,161111.000,A,4818.212270,N,01620.773359,E,58.142,159.71,261207,,,A*60
$GPVTG,159.71,T,,M,58.142,N,107.738,K,A*06
$GPGGA,161112.000,4818.197035,N,01620.781992,E,1,8,0.91,167.049,M,43.444,M,,*53
$GPGSA,A,3,14,20,03,28,19,11,22,01,,,,,1.89,0.91,1.66*0C
$GPRMC,161112.000,A,4818.197035,N,01620.781992,E,58.833,158.51,261207,,,A*62
$GPVTG,158.51,T,,M,58.833,N,109.018,K,A*01
$GPGGA,161113.000,4818.181871,N,01620.791295,E,1,8,0.91,166.677,M,43.444,M,,*5A
$GPGSA,A,3,14,20,03,28,19,11,22,01,,,,,1.89,0.91,1.66*0C
$GPRMC,161113.000,A,4818.181871,N,01620.791295,E,59.161,157.46,261207,,,A*67
$GPVTG,157.46,T,,M,59.161,N,109.625,K,A*0F
$GPGGA,161114.000,4818.166720,N,01620.801003,E,1,8,0.91,166.868,M,43.443,M,,*53
$GPGSA,A,3,14,20,03,28,19,11,22,01,,,,,1.89,0.91,1.66*0C
$GPGSV,3,1,10,11,56,291,45,01,51,121,40,19,47,181,43,14,45,071,44*77
$GPGSV,3,2,10,20,24,243,38,22,22,060,41,03,17,170,34,28,16,299,41*7E
$GPGSV,3,3,10,17,04,324,36,09,03,017,27*73
$GPRMC,161114.000,A,4818.166720,N,01620.801003,E,59.472,156.09,261207,,,A*64
$GPVTG,156.09,T,,M,59.472,N,110.202,K,A*0B
$GPGGA,161115.000,4818.151826,N,01620.811015,E,1,8,0.91,167.403,M,43.443,M,,*59
$GPGSA,A,3,14,20,03,28,19,11,22,01,,,,,1.89,0.91,1.66*0C
$GPRMC,161115.000,A,4818.151826,N,01620.811015,E,59.616,155.13,261207,,,A*66
$GPVTG,155.13,T,,M,59.616,N,110.468,K,A*09
$GPGGA,161116.000,4818.136801,N,01620.821872,E,1,8,0.91,167.048,M,43.443,M,,*5F
$GPGSA,A,3,14,20,03,28,19,11,22,01,,,,,1.89,0.91,1.66*0C
$GPRMC,161116.000,A,4818.136801,N,01620.821872,E,59.773,153.84,261207,,,A*61
$GPVTG,153.84,T,,M,59.773,N,110.759,K,A*02
$GPGGA,161117.000,4818.122061,N,01620.832818,E,1,8,0.91,167.793,M,43.443,M,,*5A
$GPGSA,A,3,14,20,03,28,19,11,22,01,,,,,1.89,0.91,1.66*0C
$GPRMC,161117.000,A,4818.122061,N,01620.832818,E,59.855,152.81,261207,,,A*6A
$GPVTG,152.81,T,,M,59.855,N,110.911,K,A*0F
$GPGGA,161118.000,4818.107416,N,01620.844508,E,1,8,0.91,168.242,M,43.442,M,,*5C
$GPGSA,A,3,14,20,03,28,19,11,22,01,,,,,1.89,0.91,1.66*0C
$GPRMC,161118.000,A,4818.107416,N,01620.844508,E,59.749,151.89,261207,,,A*62
$GPVTG,151.89,T,,M,59.749,N,110.715,K,A*0C
$GPGGA,161119.000,4818.092775,N,01620.856401,E,1,8,0.91,168.497,M,43.442,M,,*53
$GPGSA,A,3,14,20,03,28,19,11,22,01,,,,,1.89,0.91,1.66*0C
$GPGSV,3,1,10,11,56,291,43,01,51,121,40,19,47,181,39,14,45,071,44*7C
$GPGSV,3,2,10,20,24,243,40,22,22,060,43,03,17,170,36,28,16,299,39*7E
$GPGSV,3,3,10,17,04,324,32,09,03,017,27*77
$GPRMC,161119.000,A,4818.092775,N,01620.856401,E,59.774,150.81,261207,,,A*64
$GPVTG,150.81,T,,M,59.774,N,110.761,K,A*08
$GPGGA,161120.000,4818.078334,N,01620.868648,E,1,8,0.91,168.372,M,43.442,M,,*52
$GPGSA,A,3,14,20,03,28,19,11,22,01,,,,,1.89,0.91,1.65*0F
$GPRMC,161120.000,A,4818.078334,N,01620.868648,E,59.447,150.20,261207,,,A*61
$GPVTG,150.20,T,,M,59.447,N,110.154,K,A*00
$GPGGA,161121.000,4818.063976,N,01620.880944,E,1,8,0.91,168.976,M,43.441,M,,*5D
$GPGSA,A,3,14,20,03,28,19,11,22,01,,,,,1.89,0.91,1.65*0F
$GPRMC,161121.000,A,4818.063976,N,01620.880944,E,59.336,149.75,261207,,,A*6A
$GPVTG,149.75,T,,M,59.336,N,109.949,K,A*05
$GPGGA,161122.000,4818.049792,N,01620.893710,E,1,8,0.91,168.557,M,43.441,M,,*50
$GPGSA,A,3,14,20,03,28,19,11,22,01,,,,,1.89,0.91,1.65*0F
$GPRMC,161122.000,A,4818.049792,N,01620.893710,E,59.328,149.18,261207,,,A*6C
$GPVTG,149.18,T,,M,59.328,N,109.935,K,A*0A
$GPGGA,161123.000,4818.035736,N,01620.906498,E,1,8,0.91,168.330,M,43.441,M,,*5D
$GPGSA,A,3,14,20,03,28,19,11,22,01,,,,,1.89,0.91,1.65*0F
$GPRMC,161123.000,A,4818.035736,N,01620.906498,E,59.425,148.64,261207,,,A*66
$GPVTG,148.64,T,,M,59.425,N,110.114,K,A*09
$GPGGA,161124.000,4818.021779,N,01620.919772,E,1,8,0.91,168.329,M,43.441,M,,*55
$GPGSA,A,3,14,20,03,28,19,11,22,01,,,,,1.89,0.91,1.65*0F
$GPGSV,3,1,10,11,56,291,43,01,51,121,41,19,47,181,38,14,45,071,45*7D
$GPGSV,3,2,10,20,24,243,41,22,22,060,41,03,17,170,34,28,16,299,39*7F
$GPGSV,3,3,10,17,04,324,38,09,03,017,17*7E
$GPRMC,161124.000,A,4818.021779,N,01620.919772,E,58.735,147.67,261207,,,A*69
$GPVTG,147.67,T,,M,58.735,N,108.836,K,A*06
$GPGGA,161125.000,4818.007880,N,01620.932924,E,1,8,0.91,168.390,M,43.440,M,,*5E
$GPGSA,A,3,14,20,03,28,19,11,22,01,,,,,1.89,0.91,1.65*0F
$GPRMC,161125.000,A,4818.007880,N,01620.932924,E,58.135,147.27,261207,,,A*63
$GPVTG,147.27,T,,M,58.135,N,107.724,K,A*07
$GPGGA,161126.000,4817.994219,N,01620.946138,E,1,8,0.91,168.301,M,43.440,M,,*55
$GPGSA,A,3,14,20,03,28,19,11,22,01,,,,,1.89,0.91,1.65*0F
$GPRMC,161126.000,A,4817.994219,N,01620.946138,E,57.748,147.36,261207,,,A*63
$GPVTG,147.36,T,,M,57.748,N,107.006,K,A*03
$GPGGA,161127.000,4817.980868,N,01620.959211,E,1,8,0.91,168.436,M,43.440,M,,*58
$GPGSA,A,3,14,20,03,28,19,11,22,01,,,,,1.89,0.91,1.65*0F
$GPRMC,161127.000,A,4817.980868,N,01620.959211,E,57.520,146.17,261207,,,A*63
$GPVTG,146.17,T,,M,57.520,N,106.585,K,A*02
$GPGGA,161128.000,4817.967722,N,01620.972881,E,1,8,0.91,167.944,M,43.439,M,,*5C
$GPGSA,A,3,14,20,03,28,19,11,22,01,,,,,1.89,0.91,1.65*0F
$GPRMC,161128.000,A,4817.967722,N,01620.972881,E,57.826,144.91,261207,,,A*69
$GPVTG,144.91,T,,M,57.826,N,107.151,K,A*09
$GPGGA,161129.000,4817.954583,N,01620.986757,E,1,8,0.91,168.299,M,43.439,M,,*5F
$GPGSA,A,3,14,20,03,28,19,11,22,01,,,,,1.89,0.91,1.65*0F
$GPGSV,3,1,10,11,56,291,44,01,51,121,40,19,47,181,38,14,45,070,43*7C
$GPGSV,3,2,10,20,24,243,42,22,22,060,41,03,17,170,31,28,16,299,40*77
$GPGSV,3,3,10,17,04,324,38,09,03,017,15*7C
$GPRMC,161129.000,A,4817.954583,N,01620.986757,E,58.050,144.85,261207,,,A*6D
$GPVTG,144.85,T,,M,58.050,N,107.566,K,A*0A
$GPGGA,161130.000,4817.941291,N,01621.000774,E,1,8,0.91,168.560,M,43.439,M,,*51
$GPGSA,A,3,14,20,03,28,19,11,22,01,,,,,1.89,0.91,1.65*0F
$GPRMC,161130.000,A,4817.941291,N,01621.000774,E,58.869,145.66,261207,,,A*6C
$GPVTG,145.66,T,,M,58.869,N,109.084,K,A*03
$GPGGA,161131.000,4817.927608,N,01621.014257,E,1,8,0.91,168.305,M,43.438,M,,*51
$GPGSA,A,3,14,20,03,28,19,11,22,01,,,,,1.89,0.91,1.65*0F
$GPRMC,161131.000,A,4817.927608,N,01621.014257,E,59.295,147.09,261207,,,A*6B
$GPVTG,147.09,T,,M,59.295,N,109.874,K,A*07
$GPGGA,161132.000,4817.913582,N,01621.027714,E,1,8,0.91,168.471,M,43.438,M,,*52
$GPGSA,A,3,14,20,03,28,19,11,22,01,,,,,1.89,0.91,1.65*0F
$GPRMC,161132.000,A,4817.913582,N,01621.027714,E,59.484,147.28,261207,,,A*69
$GPVTG,147.28,T,,M,59.484,N,110.223,K,A*02
$GPGGA,161133.000,4817.899708,N,01621.040990,E,1,8,0.91,168.831,M,43.438,M,,*5B
$GPGSA,A,3,14,20,03,28,19,11,22,01,,,,,1.89,0.91,1.65*0F
$GPRMC,161133.000,A,4817.899708,N,01621.040990,E,59.593,147.44,261207,,,A*65
$GPVTG,147.44,T,,M,59.593,N,110.426,K,A*0C
$GPGGA,161134.000,4817.885669,N,01621.054296,E,1,8,0.91,168.753,M,43.438,M,,*54
$GPGSA,A,3,14,20,03,28,19,11,22,01,,,,,1.89,0.91,1.65*0F
$GPGSV,3,1,10,11,56,291,44,01,51,121,41,19,47,181,38,14,45,070,46*78
$GPGSV,3,2,10,20,24,243,43,22,22,060,43,03,17,170,32,28,16,299,40*77
$GPGSV,3,3,10,17,04,324,39,09,03,017,*79
$GPRMC,161134.000,A,4817.885669,N,01621.054296,E,59.716,147.76,261207,,,A*6F
$GPVTG,147.76,T,,M,59.716,N,110.653,K,A*02
$GPGGA,161135.000,4817.871498,N,01621.067645,E,1,8,0.91,168.656,M,43.437,M,,*53
$GPGSA,A,3,14,20,03,28,19,11,22,01,,,,,1.89,0.91,1.65*0F
$GPRMC,161135.000,A,4817.871498,N,01621.067645,E,59.815,148.03,261207,,,A*62
$GPVTG,148.03,T,,M,59.815,N,110.837,K,A*0F
$GPGGA,161136.000,4817.857255,N,01621.080930,E,1,8,0.91,168.502,M,43.437,M,,*55
$GPGSA,A,3,14,20,03,28,19,11,22,01,,,,,1.89,0.91,1.65*0F
$GPRMC,161136.000,A,4817.857255,N,01621.080930,E,59.621,147.70,261207,,,A*64
$GPVTG,147.70,T,,M,59.621,N,110.477,K,A*05
$GPGGA,161137.000,4817.843357,N,01621.094100,E,1,8,0.91,168.157,M,43.437,M,,*58
$GPGSA,A,3,14,20,03,28,19,11,22,01,,,,,1.89,0.91,1.65*0F
$GPRMC,161137.000,A,4817.843357,N,01621.094100,E,59.579,148.28,261207,,,A*61
$GPVTG,148.28,T,,M,59.579,N,110.400,K,A*09
$GPGGA,161138.000,4817.829279,N,01621.107046,E,1,8,0.91,167.828,M,43.436,M,,*51
$GPGSA,A,3,14,20,03,28,19,11,22,01,,,,,1.89,0.91,1.65*0F
$GPRMC,161138.000,A,4817.829279,N,01621.107046,E,59.316,148.32,261207,,,A*63
$GPVTG,148.32,T,,M,59.316,N,109.912,K,A*0B
$GPGGA,161139.000,4817.815110,N,01621.119820,E,1,8,0.91,167.830,M,43.436,M,,*5D
$GPGSA,A,3,14,20,03,28,19,11,22,01,,,,,1.89,0.91,1.65*0F
$GPGSV,3,1,10,11,56,291,44,01,51,121,40,19,47,181,38,14,45,070,45*7A
$GPGSV,3,2,10,20,24,243,43,22,22,060,43,03,17,170,36,28,16,299,39*7D
$GPGSV,3,3,10,17,04,324,38,09,03,017,*78
$GPRMC,161139.000,A,4817.815110,N,01621.119820,E,59.381,148.77,261207,,,A*69
$GPVTG,148.77,T,,M,59.381,N,110.034,K,A*01
$GPGGA,161140.000,4817.800880,N,01621.132618,E,1,8,0.91,168.011,M,43.436,M,,*5F
$GPGSA,A,3,14,20,03,28,19,11,22,01,,,,,1.88,0.91,1.65*0E
$GPRMC,161140.000,A,4817.800880,N,01621.132618,E,59.883,149.02,261207,,,A*65
$GPVTG,149.02,T,,M,59.883,N,110.962,K,A*01
$GPGGA,161141.000,4817.786460,N,01621.145426,E,1,8,0.91,167.791,M,43.435,M,,*51
$GPGSA,A,3,14,20,03,28,19,11,22,01,,,,,1.88,0.91,1.65*0E
$GPRMC,161141.000,A,4817.786460,N,01621.145426,E,60.165,149.14,261207,,,A*64
$GPVTG,149.14,T,,M,60.165,N,111.485,K,A*08
$GPGGA,161142.000,4817.772032,N,01621.158431,E,1,8,0.91,167.489,M,43.435,M,,*5A
$GPGSA,A,3,14,20,03,28,19,11,22,01,,,,,1.88,0.91,1.65*0E
$GPRMC,161142.000,A,4817.772032,N,01621.158431,E,60.503,149.72,261207,,,A*61
$GPVTG,149.72,T,,M,60.503,N,112.111,K,A*07
$GPGGA,161143.000,4817.757647,N,01621.170941,E,1,8,0.91,167.408,M,43.435,M,,*51
$GPGSA,A,3,14,20,03,28,19,11,22,01,,,,,1.88,0.91,1.65*0E
$GPRMC,161143.000,A,4817.757647,N,01621.170941,E,60.640,150.09,261207,,,A*63
$GPVTG,150.09,T,,M,60.640,N,112.366,K,A*05
$GPGGA,161144.000,4817.743090,N,01621.183413,E,1,8,0.91,167.324,M,43.435,M,,*50
$GPGSA,A,3,14,20,03,28,19,11,22,01,,,,,1.88,0.91,1.65*0E
$GPGSV,3,1,10,11,56,291,44,01,51,121,39,19,47,181,38,14,45,070,45*74
$GPGSV,3,2,10,20,24,243,43,22,22,060,40,03,17,170,39,28,16,299,39*71
$GPGSV,3,3,10,17,04,324,37,09,03,017,*77
$GPRMC,161144.000,A,4817.743090,N,01621.183413,E,60.674,150.18,261207,,,A*6C
$GPVTG,150.18,T,,M,60.674,N,112.430,K,A*06
$GPGGA,161145.000,4817.728474,N,01621.195823,E,1,8,0.91,167.510,M,43.434,M,,*5A
$GPGSA,A,3,14,20,03,28,19,11,22,01,,,,,1.88,0.91,1.65*0E
$GPRMC,161145.000,A,4817.728474,N,01621.195823,E,60.763,150.38,261207,,,A*63
$GPVTG,150.38,T,,M,60.763,N,112.594,K,A*0C
$GPGGA,161146.000,4817.713898,N,01621.208046,E,1,8,0.91,167.623,M,43.434,M,,*50
$GPGSA,A,3,14,20,03,28,19,11,22,01,,,,,1.88,0.91,1.65*0E
$GPRMC,161146.000,A,4817.713898,N,01621.208046,E,60.733,150.90,261207,,,A*6D
$GPVTG,150.90,T,,M,60.733,N,112.539,K,A*0C
$GPGGA,161147.000,4817.699248,N,01621.220176,E,1,8,0.91,167.336,M,43.434,M,,*5C
$GPGSA,A,3,14,20,03,28,19,11,22,01,,,,,1.88,0.91,1.65*0E
$GPRMC,161147.000,A,4817.699248,N,01621.220176,E,60.552,151.40,261207,,,A*69
$GPVTG,151.40,T,,M,60.552,N,112.203,K,A*0B
$GPGGA,161148.000,4817.684485,N,01621.232432,E,1,8,0.91,166.919,M,43.433,M,,*5F
$GPGSA,A,3,14,20,03,28,19,11,22,01,,,,,1.88,0.91,1.65*0E
$GPRMC,161148.000,A,4817.684485,N,01621.232432,E,60.597,151.81,261207,,,A*6F
$GPVTG,151.81,T,,M,60.597,N,112.285,K,A*01
$GPGGA,161149.000,4817.669551,N,01621.244422,E,1,8,0.91,166.506,M,43.433,M,,*57
$GPGSA,A,3,14,20,03,28,19,11,22,01,,,,,1.88,0.91,1.65*0E
$GPGSV,3,1,10,11,56,291,42,01,51,120,37,19,47,181,38,14,45,070,43*7B
$GPGSV,3,2,10,20,24,243,43,22,22,060,40,03,17,170,39,28,16,299,39*71
$GPGSV,3,3,10,17,04,324,28,09,03,017,*79
$GPRMC,161149.000,A,4817.669551,N,01621.244422,E,60.385,151.89,261207,,,A*68
$GPVTG,151.89,T,,M,60.385,N,111.893,K,A*02
$GPGGA,161150.000,4817.654827,N,01621.256060,E,1,8,0.91,166.922,M,43.433,M,,*56
$GPGSA,A,3,14,20,03,28,19,11,22,01,,,,,1.88,0.91,1.65*0E
$GPRMC,161150.000,A,4817.654827,N,01621.256060,E,60.324,151.93,261207,,,A*63
$GPVTG,151.93,T,,M,60.324,N,111.780,K,A*0F
$GPGGA,161151.000,4817.640093,N,01621.267646,E,1,8,0.91,167.194,M,43.433,M,,*51
$GPGSA,A,3,14,20,03,28,19,11,22,01,,,,,1.88,0.91,1.65*0E
$GPRMC,161151.000,A,4817.640093,N,01621.267646,E,60.082,152.29,261207,,,A*6D
$GPVTG,152.29,T,,M,60.082,N,111.332,K,A*0F
$GPGGA,161152.000,4817.625348,N,01621.279073,E,1,8,0.91,167.283,M,43.432,M,,*5F
$GPGSA,A,3,14,20,03,28,19,11,22,01,,,,,1.88,0.91,1.65*0E
$GPRMC,161152.000,A,4817.625348,N,01621.279073,E,60.193,152.46,261207,,,A*6F
$GPVTG,152.46,T,,M,60.193,N,111.537,K,A*04
$GPGGA,161153.000,4817.610771,N,01621.290650,E,1,8,0.91,167.456,M,43.432,M,,*58
$GPGSA,A,3,14,20,03,28,19,11,22,01,,,,,1.88,0.91,1.65*0E
$GPRMC,161153.000,A,4817.610771,N,01621.290650,E,59.805,152.49,261207,,,A*65
$GPVTG,152.49,T,,M,59.805,N,110.819,K,A*07
$GPGGA,161154.000,4817.596138,N,01621.301702,E,1,8,0.91,167.160,M,43.432,M,,*56
$GPGSA,A,3,14,20,03,28,19,11,22,01,,,,,1.88,0.91,1.64*0F
$GPGSV,3,1,10,11,56,291,42,01,51,120,37,19,47,181,39,14,45,070,43*7A
$GPGSV,3,2,10,20,24,243,42,22,22,060,40,03,16,170,40,28,16,299,39*7F
$GPGSV,3,3,10,17,04,324,33,09,03,017,*73
$GPRMC,161154.000,A,4817.596138,N,01621.301702,E,59.826,153.06,261207,,,A*60
$GPVTG,153.06,T,,M,59.826,N,110.857,K,A*06
$GPGGA,161155.000,4817.581406,N,01621.313138,E,1,8,0.91,167.017,M,43.432,M,,*54
$GPGSA,A,3,14,20,03,28,19,11,22,01,,,,,1.88,0.91,1.64*0F
$GPRMC,161155.000,A,4817.581406,N,01621.313138,E,59.777,153.00,261207,,,A*6E
$GPVTG,153.00,T,,M,59.777,N,110.767,K,A*07
$GPGGA,161156.000,4817.566585,N,01621.324425,E,1,8,0.91,167.115,M,43.431,M,,*59
$GPGSA,A,3,14,20,03,28,19,11,22,01,,,,,1.88,0.91,1.64*0F
$GPRMC,161156.000,A,4817.566585,N,01621.324425,E,59.676,153.13,261207,,,A*61
$GPVTG,153.13,T,,M,59.676,N,110.579,K,A*08
$GPGGA,161157.000,4817.551603,N,01621.335478,E,1,8,0.91,167.442,M,43.431,M,,*5E
$GPGSA,A,3,14,20,03,28,19,11,22,01,,,,,1.88,0.91,1.64*0F
$GPRMC,161157.000,A,4817.551603,N,01621.335478,E,59.483,153.49,261207,,,A*66
$GPVTG,153.49,T,,M,59.483,N,110.222,K,A*06
$GPGGA,161158.000,4817.536654,N,01621.346710,E,1,8,0.91,167.398,M,43.431,M,,*5B
$GPGSA,A,3,14,20,03,28,19,11,22,01,,,,,1.88,0.91,1.64*0F
$GPRMC,161158.000,A,4817.536654,N,01621.346710,E,59.631,153.28,261207,,,A*6F
$GPVTG,153.28,T,,M,59.631,N,110.495,K,A*00
$GPGGA,161159.000,4817.521704,N,01621.357592,E,1,8,0.91,167.843,M,43.430,M,,*5C
$GPGSA,A,3,14,20,03,28,19,11,22,01,,,,,1.88,0.91,1.64*0F
$GPGSV,3,1,10,11,56,291,43,01,51,120,37,19,47,181,40,14,45,070,43*75
$GPGSV,3,2,10,20,24,243,39,22,22,060,39,03,16,170,38,28,16,299,37*7C
$GPGSV,3,3,10,17,04,324,23,09,03,017,*72
$GPRMC,161159.000,A,4817.521704,N,01621.357592,E,59.614,153.30,261207,,,A*6A
$GPVTG,153.30,T,,M,59.614,N,110.465,K,A*01
$GPGGA,161200.000,4817.506770,N,01621.368957,E,1,8,0.91,167.940,M,43.430,M,,*5E
$GPGSA,A,3,14,20,03,28,19,11,22,01,,,,,1.88,0.91,1.64*0F
$GPRMC,161200.000,A,4817.506770,N,01621.368957,E,59.637,152.88,261207,,,A*69
$GPVTG,152.88,T,,M,59.637,N,110.506,K,A*06
$GPGGA,161201.000,4817.492008,N,01621.380275,E,1,8,0.91,167.653,M,43.430,M,,*5B
$GPGSA,A,3,14,20,03,28,19,11,22,01,,,,,1.88,0.91,1.64*0F
$GPRMC,161201.000,A,4817.492008,N,01621.380275,E,59.733,152.80,261207,,,A*6C
$GPVTG,152.80,T,,M,59.733,N,110.685,K,A*03
$GPGGA,161202.000,4817.477391,N,01621.391777,E,1,8,0.91,167.633,M,43.430,M,,*51
$GPGSA,A,3,14,20,03,28,19,11,22,01,,,,,1.88,0.91,1.64*0F
$GPRMC,161202.000,A,4817.477391,N,01621.391777,E,59.988,152.32,261207,,,A*67
$GPVTG,152.32,T,,M,59.988,N,111.158,K,A*02
$GPGGA,161203.000,4817.462767,N,01621.403229,E,1,8,0.91,167.189,M,43.429,M,,*55
$GPGSA,A,3,14,20,03,28,19,11,22,01,,,,,1.88,0.91,1.64*0F
$GPRMC,161203.000,A,4817.462767,N,01621.403229,E,60.359,152.24,261207,,,A*66
$GPVTG,152.24,T,,M,60.359,N,111.846,K,A*0F
$GPGGA,161204.000,4817.447858,N,01621.415130,E,1,8,0.91,166.915,M,43.429,M,,*56
$GPGSA,A,3,14,20,03,28,19,11,22,01,,,,,1.88,0.91,1.64*0F
$GPGSV,3,1,10,11,56,291,42,01,51,120,36,19,47,181,40,14,45,070,42*74
$GPGSV,3,2,10,20,24,243,40,22,22,060,39,03,16,170,38,28,16,299,35*70
$GPGSV,3,3,10,17,04,324,23,09,03,017,*72
$GPRMC,161204.000,A,4817.447858,N,01621.415130,E,60.628,152.14,261207,,,A*69
$GPVTG,152.14,T,,M,60.628,N,112.343,K,A*02
$GPGGA,161205.000,4817.432928,N,01621.427231,E,1,8,0.91,167.153,M,43.429,M,,*5B
$GPGSA,A,3,14,20,03,28,19,11,22,01,,,,,1.88,0.91,1.64*0F
$GPRMC,161205.000,A,4817.432928,N,01621.427231,E,60.681,151.60,261207,,,A*6C
$GPVTG,151.60,T,,M,60.681,N,112.441,K,A*04
$GPGGA,161206.000,4817.418129,N,01621.439331,E,1,8,0.91,166.854,M,43.428,M,,*59
$GPGSA,A,3,14,20,03,28,19,11,22,01,,,,,1.88,0.91,1.64*0F
$GPRMC,161206.000,A,4817.418129,N,01621.439331,E,60.984,151.28,261207,,,A*66
$GPVTG,151.28,T,,M,60.984,N,113.004,K,A*06
$GPGGA,161207.000,4817.403359,N,01621.451585,E,1,8,0.91,166.722,M,43.428,M,,*5E
$GPGSA,A,3,14,20,03,28,19,11,22,01,,,,,1.88,0.91,1.64*0F
$GPRMC,161207.000,A,4817.403359,N,01621.451585,E,60.871,151.35,261207,,,A*68
$GPVTG,151.35,T,,M,60.871,N,112.794,K,A*0E
$GPGGA,161208.000,4817.388519,N,01621.463636,E,1,8,0.91,166.369,M,43.428,M,,*56
$GPGSA,A,3,14,20,03,28,19,11,22,01,,,,,1.88,0.91,1.64*0F
$GPRMC,161208.000,A,4817.388519,N,01621.463636,E,60.679,151.27,261207,,,A*6E
$GPVTG,151.27,T,,M,60.679,N,112.439,K,A*0F
$GPGGA,161209.000,4817.373513,N,01621.475646,E,1,8,0.91,166.674,M,43.428,M,,*50
$GPGSA,A,3,14,20,03,28,19,11,22,01,,,,,1.88,0.91,1.64*0F
$GPGSV,3,1,10,11,56,291,42,01,51,120,36,19,46,181,39,14,45,070,42*7B
$GPGSV,3,2,10,20,25,243,40,22,21,060,40,03,16,170,37,28,16,299,35*73
$GPGSV,3,3,10,17,04,324,23,09,03,017,*72
$GPRMC,161209.000,A,4817.373513,N,01621.475646,E,60.767,151.05,261207,,,A*6F
$GPVTG,151.05,T,,M,60.767,N,112.601,K,A*08
$GPGGA,161210.000,4817.358643,N,01621.488154,E,1,8,0.91,166.680,M,43.427,M,,*55
$GPGSA,A,3,14,20,03,28,19,11,22,01,,,,,1.88,0.91,1.64*0F
$GPRMC,161210.000,A,4817.358643,N,01621.488154,E,60.671,151.11,261207,,,A*6D
$GPVTG,151.11,T,,M,60.671,N,112.423,K,A*09
$GPGGA,161211.000,4817.343774,N,01621.500208,E,1,8,0.91,166.766,M,43.427,M,,*59
$GPGSA,A,3,14,20,03,28,19,11,22,01,,,,,1.88,0.91,1.64*0F
$GPRMC,161211.000,A,4817.343774,N,01621.500208,E,61.199,150.83,261207,,,A*62
$GPVTG,150.83,T,,M,61.199,N,113.402,K,A*01
$GPGGA,161212.000,4817.329261,N,01621.512648,E,1,8,0.91,166.592,M,43.427,M,,*5D
$GPGSA,A,3,14,20,03,28,19,11,22,01,,,,,1.88,0.91,1.64*0F
$GPRMC,161212.000,A,4817.329261,N,01621.512648,E,60.890,150.54,261207,,,A*64
$GPVTG,150.54,T,,M,60.890,N,112.830,K,A*06
$GPGGA,161213.000,4817.314629,N,01621.525085,E,1,8,0.91,166.272,M,43.426,M,,*51
$GPGSA,A,3,14,20,03,28,19,11,22,01,,,,,1.88,0.91,1.64*0F
$GPRMC,161213.000,A,4817.314629,N,01621.525085,E,60.844,150.38,261207,,,A*63
$GPVTG,150.38,T,,M,60.844,N,112.743,K,A*0E
$GPGGA,161214.000,4817.299933,N,01621.537783,E,1,8,0.91,166.257,M,43.426,M,,*53
$GPGSA,A,3,14,20,03,28,19,11,22,01,,,,,1.88,0.91,1.64*0F
$GPGSV,3,1,10,11,56,291,42,01,51,120,36,19,46,181,38,14,45,070,42*7A
$GPGSV,3,2,10,20,25,243,41,22,21,060,39,03,16,170,37,28,16,299,34*7D
$GPGSV,3,3,10,17,04,324,24,09,03,017,*75
$GPRMC,161214.000,A,4817.299933,N,01621.537783,E,61.136,150.19,261207,,,A*68
$GPVTG,150.19,T,,M,61.136,N,113.285,K,A*0E
$GPGGA,161215.000,4817.285246,N,01621.550387,E,1,8,0.91,166.376,M,43.426,M,,*55
$GPGSA,A,3,14,20,03,28,19,11,22,01,,,,,1.88,0.91,1.64*0F
$GPRMC,161215.000,A,4817.285246,N,01621.550387,E,61.126,150.18,261207,,,A*6C
$GPVTG,150.18,T,,M,61.126,N,113.267,K,A*02
$GPGGA,161216.000,4817.270446,N,01621.563475,E,1,8,0.91,166.708,M,43.426,M,,*5D
$GPGSA,A,3,14,20,03,28,19,11,22,01,,,,,1.88,0.91,1.64*0F
$GPRMC,161216.000,A,4817.270446,N,01621.563475,E,61.046,150.13,261207,,,A*65
$GPVTG,150.13,T,,M,61.046,N,113.119,K,A*04
$GPGGA,161217.000,4817.255617,N,01621.576116,E,1,8,0.91,167.049,M,43.425,M,,*59
$GPGSA,A,3,14,20,03,28,19,11,22,01,,,,,1.88,0.91,1.64*0F
$GPRMC,161217.000,A,4817.255617,N,01621.576116,E,60.735,149.95,261207,,,A*65
$GPVTG,149.95,T,,M,60.735,N,112.542,K,A*0B
$GPGGA,161218.000,4817.241016,N,01621.588988,E,1,8,0.91,167.071,M,43.425,M,,*51
$GPGSA,A,3,14,20,03,28,19,11,22,01,,,,,1.88,0.91,1.64*0F
$GPRMC,161218.000,A,4817.241016,N,01621.588988,E,60.448,149.80,261207,,,A*6B
$GPVTG,149.80,T,,M,60.448,N,112.010,K,A*04
$GPGGA,161219.000,4817.226720,N,01621.601177,E,1,8,0.91,166.807,M,43.425,M,,*51
$GPGSA,A,3,14,20,03,28,19,11,22,01,,,,,1.87,0.91,1.64*00
$GPGSV,3,1,10,11,56,291,43,01,51,120,36,19,46,181,37,14,45,070,42*74
$GPGSV,3,2,10,20,25,243,40,22,21,060,39,03,16,170,34,28,16,298,35*7F
$GPGSV,3,3,10,17,04,324,24,09,03,017,*75
$GPRMC,161219.000,A,4817.226720,N,01621.601177,E,59.663,150.05,261207,,,A*67
$GPVTG,150.05,T,,M,59.663,N,110.556,K,A*05
$GPGGA,161220.000,4817.212396,N,01621.613682,E,1,8,0.91,166.567,M,43.424,M,,*51
$GPGSA,A,3,14,20,03,28,19,11,22,01,,,,,1.88,0.91,1.64*0F
$GPRMC,161220.000,A,4817.212396,N,01621.613682,E,59.296,149.32,261207,,,A*6F
$GPVTG,149.32,T,,M,59.296,N,109.875,K,A*03
$GPGGA,161221.000,4817.198490,N,01621.626262,E,1,8,0.91,166.985,M,43.424,M,,*5C
$GPGSA,A,3,14,20,03,28,19,11,22,01,,,,,1.87,0.91,1.64*00
$GPRMC,161221.000,A,4817.198490,N,01621.626262,E,58.085,149.25,261207,,,A*65
$GPVTG,149.25,T,,M,58.085,N,107.631,K,A*04
$GPGGA,161222.000,4817.184770,N,01621.638504,E,1,8,0.91,167.271,M,43.424,M,,*56
$GPGSA,A,3,14,20,03,28,19,11,22,01,,,,,1.87,0.91,1.64*00
$GPRMC,161222.000,A,4817.184770,N,01621.638504,E,57.165,148.83,261207,,,A*63
$GPVTG,148.83,T,,M,57.165,N,105.927,K,A*03
$GPGGA,161223.000,4817.171470,N,01621.650518,E,1,8,0.91,166.624,M,43.424,M,,*58
$GPGSA,A,3,14,20,03,28,19,11,22,01,,,,,1.87,0.91,1.64*00
$GPRMC,161223.000,A,4817.171470,N,01621.650518,E,55.850,148.90,261207,,,A*67
$GPVTG,148.90,T,,M,55.850,N,103.491,K,A*0A
$GPGGA,161224.000,4817.158649,N,01621.662253,E,1,8,0.91,165.839,M,43.423,M,,*53
$GPGSA,A,3,14,20,03,28,19,11,22,01,,,,,1.87,0.91,1.64*00
$GPGSV,3,1,10,11,56,291,43,01,51,120,38,19,46,181,37,14,45,070,43*7B
$GPGSV,3,2,10,20,25,243,42,22,21,060,39,03,16,170,36,28,16,298,35*7F
$GPGSV,3,3,10,17,04,324,25,09,03,017,*74
$GPRMC,161224.000,A,4817.158649,N,01621.662253,E,54.454,148.73,261207,,,A*6E
$GPVTG,148.73,T,,M,54.454,N,100.904,K,A*0C
$GPGGA,161225.000,4817.146081,N,01621.673939,E,1,8,0.91,165.458,M,43.423,M,,*53
$GPGSA,A,3,14,20,03,28,19,11,22,01,,,,,1.87,0.91,1.64*00
$GPRMC,161225.000,A,4817.146081,N,01621.673939,E,53.671,148.60,261207,,,A*65
$GPVTG,148.60,T,,M,53.671,N,99.453,K,A*32
$GPGGA,161226.000,4817.133354,N,01621.685542,E,1,8,0.91,165.342,M,43.423,M,,*5C
$GPGSA,A,3,14,20,03,28,19,11,22,01,,,,,1.87,0.91,1.64*00
$GPRMC,161226.000,A,4817.133354,N,01621.685542,E,52.480,148.56,261207,,,A*6E
$GPVTG,148.56,T,,M,52.480,N,97.245,K,A*35
$GPGGA,161227.000,4817.120959,N,01621.696837,E,1,8,0.91,165.438,M,43.423,M,,*5F
$GPGSA,A,3,14,20,03,28,19,11,22,01,,,,,1.87,0.91,1.63*07
$GPRMC,161227.000,A,4817.120959,N,01621.696837,E,51.484,148.80,261207,,,A*6B
$GPVTG,148.80,T,,M,51.484,N,95.401,K,A*3D
$GPGGA,161228.000,4817.108785,N,01621.708088,E,1,8,0.91,165.585,M,43.422,M,,*59
$GPGSA,A,3,14,20,03,28,19,11,22,01,,,,,1.87,0.91,1.64*00
$GPRMC,161228.000,A,4817.108785,N,01621.708088,E,50.844,148.68,261207,,,A*6C
$GPVTG,148.68,T,,M,50.844,N,94.214,K,A*39
$GPGGA,161229.000,4817.096537,N,01621.719058,E,1,8,0.91,165.966,M,43.422,M,,*59
$GPGSA,A,3,14,20,03,28,19,11,22,01,,,,,1.87,0.91,1.63*07
$GPGSV,3,1,10,11,56,291,42,01,51,120,37,19,46,181,37,14,45,070,43*75
$GPGSV,3,2,10,20,25,243,43,22,21,060,39,03,16,170,35,28,16,298,38*70
$GPGSV,3,3,10,17,04,324,23,09,02,017,*73
$GPRMC,161229.000,A,4817.096537,N,01621.719058,E,49.856,149.12,261207,,,A*6A
$GPVTG,149.12,T,,M,49.856,N,92.382,K,A*36
$GPGGA,161230.000,4817.084673,N,01621.729367,E,1,8,0.91,165.895,M,43.422,M,,*50
$GPGSA,A,3,14,20,03,28,19,11,22,01,,,,,1.87,0.91,1.63*07
$GPRMC,161230.000,A,4817.084673,N,01621.729367,E,49.077,149.28,261207,,,A*6C
$GPVTG,149.28,T,,M,49.077,N,90.939,K,A*3C
$GPGGA,161231.000,4817.072902,N,01621.739668,E,1,8,0.91,165.687,M,43.422,M,,*57
$GPGSA,A,3,14,20,03,28,19,11,22,01,,,,,1.87,0.91,1.63*07
$GPRMC,161231.000,A,4817.072902,N,01621.739668,E,48.716,150.40,261207,,,A*61
$GPVTG,150.40,T,,M,48.716,N,90.271,K,A*3C
$GPGGA,161232.000,4817.061145,N,01621.749533,E,1,8,0.91,166.115,M,43.421,M,,*5B
$GPGSA,A,3,14,20,03,28,19,11,22,01,,,,,1.87,0.91,1.63*07
$GPRMC,161232.000,A,4817.061145,N,01621.749533,E,48.427,151.28,261207,,,A*6F
$GPVTG,151.28,T,,M,48.427,N,89.735,K,A*3F
$GPGGA,161233.000,4817.049589,N,01621.759330,E,1,8,0.91,166.002,M,43.421,M,,*57
$GPGSA,A,3,14,20,03,28,19,11,22,01,,,,,1.87,0.91,1.63*07
$GPRMC,161233.000,A,4817.049589,N,01621.759330,E,48.388,151.36,261207,,,A*69
$GPVTG,151.36,T,,M,48.388,N,89.663,K,A*30
$GPGGA,161234.000,4817.037802,N,01621.768895,E,1,8,0.91,165.971,M,43.421,M,,*5F
$GPGSA,A,3,14,20,03,28,19,11,22,01,,,,,1.87,0.91,1.63*07
$GPGSV,3,1,10,11,57,291,42,01,51,120,37,19,46,181,37,14,45,070,42*75
$GPGSV,3,2,10,20,25,243,43,22,21,060,39,03,16,170,37,28,16,298,38*72
$GPGSV,3,3,10,17,04,324,25,09,02,017,*75
$GPRMC,161234.000,A,4817.037802,N,01621.768895,E,47.937,150.73,261207,,,A*6E
$GPVTG,150.73,T,,M,47.937,N,88.828,K,A*31
$GPGGA,161235.000,4817.026301,N,01621.778812,E,1,8,0.91,165.584,M,43.421,M,,*5E
$GPGSA,A,3,14,20,03,28,19,11,22,01,,,,,1.87,0.91,1.63*07
$GPRMC,161235.000,A,4817.026301,N,01621.778812,E,47.879,149.89,261207,,,A*6F
$GPVTG,149.89,T,,M,47.879,N,88.720,K,A*30
$GPGGA,161236.000,4817.014612,N,01621.788926,E,1,8,0.91,165.378,M,43.420,M,,*56
$GPGSA,A,3,14,20,03,28,19,11,22,01,,,,,1.87,0.91,1.63*07
$GPRMC,161236.000,A,4817.014612,N,01621.788926,E,47.640,150.01,261207,,,A*6F
$GPVTG,150.01,T,,M,47.640,N,88.278,K,A*34
$GPGGA,161237.000,4817.003381,N,01621.798421,E,1,9,0.85,164.809,M,43.420,M,,*5D
$GPGSA,A,3,14,20,03,28,17,19,11,22,01,,,,1.67,0.85,1.44*0F
$GPRMC,161237.000,A,4817.003381,N,01621.798421,E,47.356,149.83,261207,,,A*6C
$GPVTG,149.83,T,,M,47.356,N,87.750,K,A*34
$GPGGA,161238.000,4816.992121,N,01621.808436,E,1,9,0.85,164.512,M,43.420,M,,*5D
$GPGSA,A,3,14,20,03,28,17,19,11,22,01,,,,1.67,0.85,1.44*0F
$GPRMC,161238.000,A,4816.992121,N,01621.808436,E,47.074,149.55,261207,,,A*63
$GPVTG,149.55,T,,M,47.074,N,87.228,K,A*36
$GPGGA,161239.000,4816.980782,N,01621.818363,E,1,9,0.85,164.799,M,43.420,M,,*57
$GPGSA,A,3,14,20,03,28,17,19,11,22,01,,,,1.67,0.85,1.44*0F
$GPGSV,3,1,10,11,57,291,42,01,51,120,37,19,46,181,36,14,45,070,42*74
$GPGSV,3,2,10,20,25,243,42,22,21,060,40,03,16,170,37,28,16,298,39*7C
$GPGSV,3,3,10,17,05,324,32,09,02,017,*72
$GPRMC,161239.000,A,4816.980782,N,01621.818363,E,47.125,149.95,261207,,,A*61
$GPVTG,149.95,T,,M,47.125,N,87.322,K,A*34
$GPGGA,161240.000,4816.969201,N,01621.828268,E,1,9,0.85,164.892,M,43.419,M,,*57
$GPGSA,A,3,14,20,03,28,17,19,11,22,01,,,,1.67,0.85,1.44*0F
$GPRMC,161240.000,A,4816.969201,N,01621.828268,E,46.910,149.76,261207,,,A*6D
$GPVTG,149.76,T,,M,46.910,N,86.925,K,A*3A
$GPGGA,161241.000,4816.958143,N,01621.838199,E,1,9,0.85,164.552,M,43.419,M,,*5C
$GPGSA,A,3,14,20,03,28,17,19,11,22,01,,,,1.67,0.85,1.44*0F
$GPRMC,161241.000,A,4816.958143,N,01621.838199,E,46.751,149.82,261207,,,A*67
$GPVTG,149.82,T,,M,46.751,N,86.630,K,A*31
$GPGGA,161242.000,4816.946939,N,01621.847938,E,1,9,0.85,164.747,M,43.419,M,,*58
$GPGSA,A,3,14,20,03,28,17,19,11,22,01,,,,1.67,0.85,1.44*0F
$GPRMC,161242.000,A,4816.946939,N,01621.847938,E,46.672,150.05,261207,,,A*62
$GPVTG,150.05,T,,M,46.672,N,86.484,K,A*3B
$GPGGA,161243.000,4816.935889,N,01621.857664,E,1,9,0.85,164.709,M,43.419,M,,*5A
$GPGSA,A,3,14,20,03,28,17,19,11,22,01,,,,1.67,0.85,1.44*0F
$GPRMC,161243.000,A,4816.935889,N,01621.857664,E,46.654,150.16,261207,,,A*6C
$GPVTG,150.16,T,,M,46.654,N,86.450,K,A*34
$GPGGA,161244.000,4816.924766,N,01621.867086,E,1,9,0.85,164.333,M,43.419,M,,*57
$GPGSA,A,3,14,20,03,28,17,19,11,22,01,,,,1.67,0.85,1.44*0F
$GPGSV,3,1,10,11,57,291,42,01,51,120,37,19,46,181,37,14,45,070,42*75
$GPGSV,3,2,10,20,25,243,43,22,21,060,40,03,16,170,37,28,16,298,38*7C
$GPGSV,3,3,10,17,05,324,34,09,02,017,*74
$GPRMC,161244.000,A,4816.924766,N,01621.867086,E,46.383,149.97,261207,,,A*62
$GPVTG,149.97,T,,M,46.383,N,85.949,K,A*3C
$GPGGA,161245.000,4816.913656,N,01621.876782,E,1,9,0.85,164.569,M,43.418,M,,*5B
$GPGSA,A,3,14,20,03,28,17,19,11,22,01,,,,1.67,0.85,1.44*0F
$GPRMC,161245.000,A,4816.913656,N,01621.876782,E,46.238,150.01,261207,,,A*60
$GPVTG,150.01,T,,M,46.238,N,85.679,K,A*36
$GPGGA,161246.000,4816.902546,N,01621.886314,E,1,9,0.85,164.478,M,43.418,M,,*5F
$GPGSA,A,3,14,20,03,28,17,19,11,22,01,,,,1.67,0.85,1.44*0F
$GPRMC,161246.000,A,4816.902546,N,01621.886314,E,46.309,150.46,261207,,,A*65
$GPVTG,150.46,T,,M,46.309,N,85.811,K,A*36
$GPGGA,161247.000,4816.891600,N,01621.895870,E,1,9,0.85,164.334,M,43.418,M,,*50
$GPGSA,A,3,14,20,03,28,17,19,11,22,01,,,,1.67,0.85,1.44*0F
$GPRMC,161247.000,A,4816.891600,N,01621.895870,E,46.160,150.28,261207,,,A*60
$GPVTG,150.28,T,,M,46.160,N,85.534,K,A*39
$GPGGA,161248.000,4816.880497,N,01621.905219,E,1,9,0.85,164.823,M,43.418,M,,*53
$GPGSA,A,3,14,20,03,28,17,19,11,22,01,,,,1.67,0.85,1.44*0F
$GPRMC,161248.000,A,4816.880497,N,01621.905219,E,45.926,150.08,261207,,,A*65
$GPVTG,150.08,T,,M,45.926,N,85.101,K,A*30
$GPGGA,161249.000,4816.869237,N,01621.914741,E,1,9,0.85,164.957,M,43.417,M,,*5C
$GPGSA,A,3,14,20,03,28,17,19,11,22,01,,,,1.67,0.85,1.44*0F
$GPGSV,3,1,10,11,57,291,42,01,51,120,29,19,46,181,30,14,45,070,33*7B
$GPGSV,3,2,10,20,25,243,43,22,21,060,39,03,16,170,36,28,16,298,39*72
$GPGSV,3,3,10,17,05,324,34,09,02,017,21*77
$GPRMC,161249.000,A,4816.869237,N,01621.914741,E,45.611,150.49,261207,,,A*69
$GPVTG,150.49,T,,M,45.611,N,84.518,K,A*33
$GPGGA,161250.000,4816.858296,N,01621.924097,E,1,9,0.85,164.543,M,43.417,M,,*5B
$GPGSA,A,3,14,20,03,28,17,19,11,22,01,,,,1.67,0.85,1.44*0F
$GPRMC,161250.000,A,4816.858296,N,01621.924097,E,45.813,150.08,261207,,,A*6E
$GPVTG,150.08,T,,M,45.813,N,84.892,K,A*35
$GPGGA,161251.000,4816.847429,N,01621.933411,E,1,9,0.85,164.845,M,43.417,M,,*51
$GPGSA,A,3,14,20,03,28,17,19,11,22,01,,,,1.67,0.85,1.44*0F
$GPRMC,161251.000,A,4816.847429,N,01621.933411,E,45.696,150.32,261207,,,A*65
$GPVTG,150.32,T,,M,45.696,N,84.675,K,A*38
$GPGGA,161252.000,4816.836542,N,01621.942577,E,1,9,0.85,164.717,M,43.417,M,,*57
$GPGSA,A,3,14,20,03,28,17,19,11,22,01,,,,1.67,0.85,1.44*0F
$GPRMC,161252.000,A,4816.836542,N,01621.942577,E,45.788,150.59,261207,,,A*68
$GPVTG,150.59,T,,M,45.788,N,84.845,K,A*36
$GPGGA,161253.000,4816.825470,N,01621.951869,E,1,9,0.85,164.919,M,43.417,M,,*54
$GPGSA,A,3,14,20,03,28,17,19,11,22,01,,,,1.67,0.85,1.44*0F
$GPRMC,161253.000,A,4816.825470,N,01621.951869,E,45.895,150.59,261207,,,A*68
$GPVTG,150.59,T,,M,45.895,N,85.043,K,A*3A
$GPGGA,161254.000,4816.814256,N,01621.961479,E,1,9,0.85,164.963,M,43.416,M,,*51
$GPGSA,A,3,14,20,03,28,17,19,11,22,01,,,,1.67,0.85,1.44*0F
$GPGSV,3,1,10,11,57,291,42,01,52,119,38,19,46,181,37,14,45,070,42*73
$GPGSV,3,2,10,20,25,243,42,22,21,060,42,03,16,170,28,28,16,298,38*71
$GPGSV,3,3,10,17,05,324,22,09,02,017,17*75
$GPRMC,161254.000,A,4816.814256,N,01621.961479,E,45.942,150.56,261207,,,A*65
$GPVTG,150.56,T,,M,45.942,N,85.130,K,A*3B
$GPGGA,161255.000,4816.803589,N,01621.970745,E,1,4,1.58,165.361,M,43.416,M,,*5A
$GPGSA,A,3,14,03,17,01,,,,,,,,,1.86,1.58,0.99*00
$GPRMC,161255.000,A,4816.803589,N,01621.970745,E,45.913,150.26,261207,,,A*68
$GPVTG,150.26,T,,M,45.913,N,85.076,K,A*3B
$GPGGA,161256.000,4816.792613,N,01621.980108,E,1,9,0.85,165.559,M,43.416,M,,*5F
$GPGSA,A,3,14,20,03,28,17,19,11,22,01,,,,1.67,0.85,1.44*0F
$GPRMC,161256.000,A,4816.792613,N,01621.980108,E,45.801,150.59,261207,,,A*66
$GPVTG,150.59,T,,M,45.801,N,84.870,K,A*3E
$GPGGA,161257.000,4816.781489,N,01621.989421,E,1,9,0.85,165.576,M,43.416,M,,*57
$GPGSA,A,3,14,20,03,28,17,19,11,22,01,,,,1.67,0.85,1.43*08
$GPRMC,161257.000,A,4816.781489,N,01621.989421,E,45.636,151.02,261207,,,A*66
$GPVTG,151.02,T,,M,45.636,N,84.563,K,A*34
$GPGGA,161258.000,4816.770504,N,01621.998990,E,1,9,0.85,165.421,M,43.415,M,,*55
$GPGSA,A,3,14,20,03,28,17,19,11,22,01,,,,1.67,0.85,1.43*08
$GPRMC,161258.000,A,4816.770504,N,01621.998990,E,45.511,151.25,261207,,,A*67
$GPVTG,151.25,T,,M,45.511,N,84.332,K,A*35
$GPGGA,161259.000,4816.759360,N,01622.007952,E,1,9,0.85,165.172,M,43.415,M,,*5A
$GPGSA,A,3,14,20,03,28,17,19,11,22,01,,,,1.67,0.85,1.43*08
$GPGSV,3,1,10,11,57,291,41,01,52,119,36,19,46,181,39,14,45,070,41*73
$GPGSV,3,2,10,20,25,243,41,22,21,060,41,03,16,170,37,28,16,298,35*72
$GPGSV,3,3,10,17,05,324,27,09,02,017,17*70
$GPRMC,161259.000,A,4816.759360,N,01622.007952,E,45.499,151.64,261207,,,A*6F
$GPVTG,151.64,T,,M,45.499,N,84.309,K,A*39
$GPGGA,161300.000,4816.748209,N,01622.017150,E,1,9,0.85,164.505,M,43.415,M,,*57
$GPGSA,A,3,14,20,03,28,17,19,11,22,01,,,,1.67,0.85,1.43*08
$GPRMC,161300.000,A,4816.748209,N,01622.017150,E,45.460,151.78,261207,,,A*6C
$GPVTG,151.78,T,,M,45.460,N,84.237,K,A*3E
$GPGGA,161301.000,4816.736977,N,01622.026246,E,1,9,0.85,164.538,M,43.415,M,,*55
$GPGSA,A,3,14,20,03,28,17,19,11,22,01,,,,1.67,0.85,1.43*08
$GPRMC,161301.000,A,4816.736977,N,01622.026246,E,45.253,151.33,261207,,,A*69
$GPVTG,151.33,T,,M,45.253,N,83.853,K,A*38
$GPGGA,161302.000,4816.725958,N,01622.035270,E,1,9,0.85,164.273,M,43.415,M,,*56
$GPGSA,A,3,14,20,03,28,17,19,11,22,01,,,,1.67,0.85,1.43*08
$GPRMC,161302.000,A,4816.725958,N,01622.035270,E,45.545,151.34,261207,,,A*65
$GPVTG,151.34,T,,M,45.545,N,84.396,K,A*3A
$GPGGA,161303.000,4816.714894,N,01622.044423,E,1,9,0.85,163.928,M,43.414,M,,*51
$GPGSA,A,3,14,20,03,28,17,19,11,22,01,,,,1.67,0.85,1.43*08
$GPRMC,161303.000,A,4816.714894,N,01622.044423,E,45.649,151.23,261207,,,A*68
$GPVTG,151.23,T,,M,45.649,N,84.588,K,A*3A
$GPGGA,161304.000,4816.703924,N,01622.054050,E,1,9,0.85,163.588,M,43.414,M,,*5D
$GPGSA,A,3,14,20,03,28,17,19,11,22,01,,,,1.67,0.85,1.43*08
$GPGSV,3,1,10,11,57,291,33,01,52,119,35,19,46,181,39,14,45,070,41*75
$GPGSV,3,2,10,20,25,243,40,22,21,060,39,03,16,170,37,28,16,298,37*7E
$GPGSV,3,3,10,17,05,324,30,09,02,016,18*78
$GPRMC,161304.000,A,4816.703924,N,01622.054050,E,45.462,151.08,261207,,,A*60
$GPVTG,151.08,T,,M,45.462,N,84.241,K,A*3A
$GPGGA,161305.000,4816.692850,N,01622.062899,E,1,9,0.85,163.637,M,43.414,M,,*58
$GPGSA,A,3,14,20,03,28,17,19,11,22,01,,,,1.67,0.85,1.43*08
$GPRMC,161305.000,A,4816.692850,N,01622.062899,E,44.434,151.28,261207,,,A*62
$GPVTG,151.28,T,,M,44.434,N,82.337,K,A*3C
$GPGGA,161306.000,4816.682094,N,01622.071754,E,1,9,0.85,163.380,M,43.414,M,,*5F
$GPGSA,A,3,14,20,03,28,17,19,11,22,01,,,,1.67,0.85,1.43*08
$GPRMC,161306.000,A,4816.682094,N,01622.071754,E,43.976,151.20,261207,,,A*68
$GPVTG,151.20,T,,M,43.976,N,81.488,K,A*38
$GPGGA,161307.000,4816.671145,N,01622.080496,E,1,9,0.85,163.321,M,43.414,M,,*57
$GPGSA,A,3,14,20,03,28,17,19,11,22,01,,,,1.67,0.85,1.43*08
$GPRMC,161307.000,A,4816.671145,N,01622.080496,E,43.921,151.30,261207,,,A*68
$GPVTG,151.30,T,,M,43.921,N,81.386,K,A*32
$GPGGA,161308.000,4816.660162,N,01622.088855,E,1,9,0.85,163.274,M,43.413,M,,*50
$GPGSA,A,3,14,20,03,28,17,19,11,22,01,,,,1.67,0.85,1.43*08
$GPRMC,161308.000,A,4816.660162,N,01622.088855,E,43.843,151.57,261207,,,A*6D
$GPVTG,151.57,T,,M,43.843,N,81.242,K,A*3F
$GPGGA,161309.000,4816.649526,N,01622.097330,E,1,9,0.85,163.056,M,43.413,M,,*5A
$GPGSA,A,3,14,20,03,28,17,19,11,22,01,,,,1.67,0.85,1.43*08
$GPGSV,3,1,10,11,57,291,40,01,52,119,34,19,46,181,37,14,45,069,39*79
$GPGSV,3,2,10,20,25,243,39,22,21,060,35,03,16,170,35,28,16,298,33*7A
$GPGSV,3,3,10,17,05,324,22,09,02,016,15*76
$GPRMC,161309.000,A,4816.649526,N,01622.097330,E,44.118,151.98,261207,,,A*66
$GPVTG,151.98,T,,M,44.118,N,81.751,K,A*3B
$GPGGA,161310.000,4816.638721,N,01622.105927,E,1,9,0.85,163.310,M,43.413,M,,*56
$GPGSA,A,3,14,20,03,28,17,19,11,22,01,,,,1.67,0.85,1.43*08
$GPRMC,161310.000,A,4816.638721,N,01622.105927,E,44.254,151.86,261207,,,A*6F
$GPVTG,151.86,T,,M,44.254,N,82.003,K,A*3C
$GPGGA,161311.000,4816.627778,N,01622.114582,E,1,9,0.85,162.589,M,43.413,M,,*51
$GPGSA,A,3,14,20,03,28,17,19,11,22,01,,,,1.67,0.85,1.43*08
$GPRMC,161311.000,A,4816.627778,N,01622.114582,E,44.901,152.03,261207,,,A*6A
$GPVTG,152.03,T,,M,44.901,N,83.201,K,A*38
$GPGGA,161312.000,4816.616583,N,01622.123504,E,1,9,0.85,162.322,M,43.413,M,,*5B
$GPGSA,A,3,14,20,03,28,17,19,11,22,01,,,,1.67,0.85,1.43*08
$GPRMC,161312.000,A,4816.616583,N,01622.123504,E,44.893,151.90,261207,,,A*64
$GPVTG,151.90,T,,M,44.893,N,83.186,K,A*37
$GPGGA,161313.000,4816.605706,N,01622.132649,E,1,9,0.85,163.059,M,43.412,M,,*52
$GPGSA,A,3,14,20,03,28,17,19,11,22,01,,,,1.67,0.85,1.43*08
$GPRMC,161313.000,A,4816.605706,N,01622.132649,E,44.847,151.59,261207,,,A*6E
$GPVTG,151.59,T,,M,44.847,N,83.101,K,A*34
$GPGGA,161314.000,4816.594529,N,01622.141368,E,1,9,0.85,163.491,M,43.412,M,,*53
$GPGSA,A,3,14,20,03,28,17,19,11,22,01,,,,1.67,0.85,1.43*08
$GPGSV,3,1,10,11,57,291,40,01,52,119,34,19,46,181,38,14,45,069,39*76
$GPGSV,3,2,10,20,25,243,41,22,21,060,36,03,16,170,36,28,16,298,36*70
$GPGSV,3,3,10,17,05,324,21,09,02,016,16*76
$GPRMC,161314.000,A,4816.594529,N,01622.141368,E,44.536,151.79,261207,,,A*66
$GPVTG,151.79,T,,M,44.536,N,82.526,K,A*3D
$GPGGA,161315.000,4816.583621,N,01622.150433,E,1,9,0.85,163.959,M,43.412,M,,*5F
$GPGSA,A,3,14,20,03,28,17,19,11,22,01,,,,1.67,0.85,1.43*08
$GPRMC,161315.000,A,4816.583621,N,01622.150433,E,44.230,151.63,261207,,,A*69
$GPVTG,151.63,T,,M,44.230,N,81.958,K,A*31
$GPGGA,161316.000,4816.572884,N,01622.159371,E,1,9,0.85,164.036,M,43.412,M,,*5C
$GPGSA,A,3,14,20,03,28,17,19,11,22,01,,,,1.67,0.85,1.43*08
$GPRMC,161316.000,A,4816.572884,N,01622.159371,E,44.053,151.72,261207,,,A*6A
$GPVTG,151.72,T,,M,44.053,N,81.631,K,A*36
$GPGGA,161317.000,4816.562340,N,01622.167945,E,1,8,0.91,164.209,M,43.411,M,,*56
$GPGSA,A,3,14,20,03,28,19,11,22,01,,,,,1.86,0.91,1.62*07
$GPRMC,161317.000,A,4816.562340,N,01622.167945,E,43.871,151.87,261207,,,A*6C
$GPVTG,151.87,T,,M,43.871,N,81.294,K,A*38
$GPGGA,161318.000,4816.551609,N,01622.176442,E,1,9,0.85,164.015,M,43.411,M,,*50
$GPGSA,A,3,14,20,03,28,17,19,11,22,01,,,,1.67,0.85,1.43*08
$GPRMC,161318.000,A,4816.551609,N,01622.176442,E,43.792,152.33,261207,,,A*6F
$GPVTG,152.33,T,,M,43.792,N,81.147,K,A*3B
$GPGGA,161319.000,4816.540635,N,01622.184892,E,1,9,0.85,163.986,M,43.411,M,,*56
$GPGSA,A,3,14,20,03,28,17,19,11,22,01,,,,1.66,0.85,1.43*09
$GPGSV,3,1,10,11,57,291,41,01,52,119,37,19,46,181,39,14,45,069,40*7B
$GPGSV,3,2,10,20,25,243,40,22,21,060,36,03,16,170,37,28,16,298,35*73
$GPGSV,3,3,10,17,05,324,23,09,02,016,17*75
$GPRMC,161319.000,A,4816.540635,N,01622.184892,E,43.838,153.49,261207,,,A*6E
$GPVTG,153.49,T,,M,43.838,N,81.232,K,A*39
